nombre,email,lat,lon,fechaRegistro,edad,genero
Albano Llopis Hierro,emiliocalatayud@example.net,16.32165,-92.197456,2023-12-07T20:52:46.388351,35,masculino
Antonia del Antón,buenoisaias@example.org,14.615164,-89.280468,2022-09-07T08:55:32.076238,61,masculino
Lisandro Flor Rivas,vidallobo@example.org,16.121019,-92.169691,2024-01-12T01:26:43.508557,23,masculino
Paco Rocamora Nieto,fabricio35@example.org,14.65391,-89.831723,2020-06-28T22:10:12.014344,53,masculino
Gastón Núñez Lamas,segoviabrunilda@example.org,16.63568,-89.424568,2025-03-02T19:28:03.687579,44,masculino
Ani Marcos Pardo,juliebanos@example.org,15.541757,-91.159418,2023-07-06T19:52:29.775516,18,masculino
Aníbal Teófilo Guerrero Cabrero,dlobo@example.net,16.562372,-90.904973,2024-06-06T03:29:37.632070,27,masculino
Gil Padilla Gallego,judith19@example.net,17.624574,-90.919962,2020-11-28T00:04:27.716864,23,femenino
Ceferino del Pino,angela83@example.net,14.096537,-88.825273,2021-09-21T02:20:12.340603,56,femenino
Darío Antón Moles,eleal@example.org,17.009226,-89.3081,2024-11-06T10:51:54.403468,52,masculino
Valentina Miranda-Garcia,ppriego@example.com,17.689775,-90.748009,2020-10-04T03:59:00.460656,53,femenino
Duilio Jódar Romero,oparedes@example.org,17.100559,-89.764069,2022-09-15T11:07:26.966835,41,masculino
René Arévalo Canals,eulaliacuesta@example.net,16.588745,-92.11212,2022-03-29T23:25:12.024314,32,femenino
Guadalupe Pizarro Solé,carolina01@example.net,17.739408,-88.793197,2024-09-12T11:01:14.804721,24,femenino
Rodrigo Nieto-Cantón,trinidad27@example.org,14.839692,-89.693694,2025-01-24T08:52:59.581701,41,masculino
Josué Escalona-Vera,martinprudencia@example.net,15.217742,-91.441021,2022-09-11T20:21:54.882129,35,masculino
Carmelo Pereira,calistaabascal@example.net,16.197437,-91.598332,2021-09-20T20:26:19.555718,64,masculino
Basilio Parejo Meléndez,bautistahernando@example.net,14.36995,-90.744233,2025-01-11T01:11:07.677115,58,masculino
Pío Torre Bayón,eduardotalavera@example.net,16.506918,-88.844307,2020-11-16T08:10:30.258593,67,masculino
Trini Rocha,ursulafont@example.net,14.639097,-92.168389,2021-08-27T17:15:12.708738,38,femenino
Isabel Villar Sanmiguel,huguetjafet@example.org,14.797738,-91.43497,2021-10-17T20:59:06.146959,54,femenino
Manola Grau-Giménez,beldalaura@example.net,14.571769,-90.253152,2020-04-24T05:06:50.571402,59,femenino
Víctor Angulo Murillo,vilaplanajordan@example.com,14.285774,-91.727516,2023-07-21T19:03:13.760863,65,femenino
Julián Catalán,yherrero@example.com,16.762757,-90.543421,2024-04-15T12:23:40.126564,55,femenino
Asdrubal Caballero,bpablo@example.com,15.184185,-88.210964,2022-06-25T00:17:00.628421,26,femenino
Nicodemo Cabello Barrera,znicolau@example.org,14.072729,-92.106823,2021-04-27T09:14:02.054384,25,masculino
Julio Sanabria,telmoespanol@example.com,16.272529,-89.052475,2022-06-16T11:34:53.232990,45,masculino
Ismael Cabañas Ayuso,buenoangeles@example.org,15.277546,-89.856857,2020-11-18T15:18:29.503609,47,femenino
Juliana García Quero,cozarreynaldo@example.org,17.681421,-88.770803,2025-03-26T11:10:02.762334,18,masculino
Ruben Sanz-Machado,jtorrecilla@example.org,16.495013,-90.098422,2021-07-29T14:28:18.249271,35,femenino
Luis Miguel Barrera Mir,ayllondaniela@example.com,14.157364,-90.517462,2022-09-02T12:17:57.323501,47,masculino
Camila Barberá,estevezbruno@example.net,17.610645,-88.709003,2020-05-11T20:12:06.367748,34,masculino
Heriberto de Hoz,bilbaosimon@example.net,15.781495,-91.863716,2023-02-06T07:18:02.102483,58,femenino
Estela Julián,haydeemiralles@example.org,17.150844,-90.218582,2021-05-30T06:47:33.788582,30,masculino
Nico Marín Sebastián,ursula10@example.com,15.233047,-91.637649,2023-04-20T00:39:46.168060,67,masculino
Armida Beltrán-Garcés,eligio51@example.org,16.155673,-90.296717,2021-12-17T20:52:35.749657,25,femenino
Isidoro Mate Ángel,marigracia@example.org,17.30276,-88.890171,2024-12-26T11:48:24.793994,37,masculino
Eligio Carlos Campo,lalolujan@example.net,13.937493,-88.700161,2021-02-12T14:44:35.071305,23,masculino
Clara Laguna Vega,diglesias@example.org,16.700821,-88.954305,2023-05-15T11:45:39.363938,66,masculino
Alfredo Acevedo-Múgica,febejuarez@example.org,14.226405,-90.351342,2023-12-08T23:05:59.960311,53,masculino
Olalla del Agustí,benetsol@example.net,14.786732,-88.723025,2024-10-19T14:10:08.590583,45,masculino
Alicia del Colomer,ccastell@example.com,17.508545,-89.203413,2021-12-08T09:52:26.107396,62,masculino
Vinicio Pallarès Gallo,griseldacalderon@example.com,16.623091,-90.664132,2024-02-22T09:34:08.612518,60,femenino
María Teresa Cortes Guzmán,nereidaelorza@example.com,15.49621,-90.177939,2020-02-18T02:01:57.270005,25,masculino
Ricarda Requena Hurtado,feliciano16@example.org,14.621259,-90.913849,2024-07-23T15:23:38.111464,55,masculino
Cornelio del Olmo,otilia33@example.org,16.112604,-92.270518,2023-07-04T10:36:02.981108,63,masculino
Eulalia Lopez Baños,pascual86@example.net,14.638661,-88.587778,2025-03-18T09:31:13.917152,39,masculino
Eusebia de Carlos,gaspar94@example.org,15.80804,-91.158243,2020-07-29T07:07:59.615181,49,masculino
Fabiola Mir Rubio,plazatrinidad@example.net,15.910859,-89.334254,2021-01-03T17:54:39.713174,54,femenino
Paulino Rubio Abellán,prudenciorosado@example.org,14.696289,-90.360811,2025-01-14T18:48:49.581094,44,masculino
Matilde Mir Casanovas,anunciacion46@example.com,14.086736,-89.598171,2022-02-19T15:25:48.952719,40,femenino
Leonel Bernardo Feliu Rivero,ndavila@example.net,15.385519,-88.758269,2021-08-06T19:58:40.955954,21,masculino
Serafina de Mateu,humberto69@example.net,13.948512,-89.314324,2023-06-24T02:33:14.656323,69,masculino
Isaura Salamanca García,qdomenech@example.org,14.719491,-91.520143,2021-07-04T12:51:39.781261,46,masculino
Eva María Araceli Gutierrez Menéndez,noeliaflor@example.org,15.429715,-91.157965,2020-02-17T09:13:33.294669,33,masculino
Jordán de Sarabia,tferreras@example.net,15.516836,-88.768469,2022-01-14T21:43:15.142412,53,masculino
Daniela Coloma Adán,rodriguezisidoro@example.org,13.907412,-88.202942,2024-04-08T22:41:31.054265,18,masculino
Jordana Ayllón,yessicacarrion@example.com,17.498105,-88.820347,2020-09-15T16:09:31.766582,28,femenino
Natividad Molins Salas,ksalmeron@example.net,15.691129,-91.423636,2024-07-29T06:29:33.881339,43,masculino
Dora Huertas Lluch,rharo@example.com,14.375012,-92.291163,2020-05-30T07:33:39.870797,42,femenino
Desiderio Elías Narváez Montenegro,chaconeutropio@example.org,17.498724,-89.08097,2022-01-13T01:48:26.727423,36,femenino
Patricio Gargallo Baró,vramon@example.net,16.556025,-89.304928,2022-06-22T21:03:05.167174,68,femenino
Cristian Rivera Porras,pintoralbina@example.org,14.334667,-91.083498,2025-01-02T21:16:27.595234,21,masculino
Renato Guiomar Rius Giménez,rgimenez@example.com,16.7667,-92.065622,2022-07-31T03:05:27.047092,55,femenino
Evangelina Quiroga Dalmau,ncastell@example.net,15.761687,-88.803848,2020-02-22T07:32:08.766102,28,masculino
Martina Amores Blanes,dcerda@example.org,17.639194,-91.971543,2020-04-07T13:12:39.882038,29,masculino
Eugenia Galán Sanz,nicolas64@example.com,16.139644,-89.531629,2021-05-04T09:33:16.329329,33,femenino
Joel Aliaga Azorin,jacobo10@example.org,14.191535,-88.649822,2025-01-16T05:08:21.743300,33,masculino
Simón Almagro,jorgecases@example.com,16.239464,-90.581178,2023-07-22T17:27:06.745960,55,femenino
Concha Sola-Jaén,florencio99@example.net,17.532296,-91.462537,2023-10-25T14:07:13.144094,63,femenino
Fabricio Campoy Amigó,coral66@example.net,14.678612,-90.677278,2021-01-19T18:04:15.274226,60,femenino
Nuria Herrero-Cal,remedios91@example.net,15.574621,-88.491025,2024-02-27T06:51:23.353941,22,masculino
Luisina Romero Pellicer,velascoflora@example.com,15.578971,-88.206337,2020-01-25T13:04:25.250618,24,masculino
Sandra Trillo Camacho,oparedes@example.com,15.904301,-90.225873,2023-10-04T03:42:26.331383,26,femenino
Carmen Vélez León,bsola@example.net,17.311543,-88.694992,2023-02-23T09:07:47.284312,41,femenino
Tamara Higueras Bolaños,socorro73@example.com,14.346762,-88.881646,2023-01-10T11:43:46.728656,63,femenino
Evangelina Andrade Urrutia,german73@example.com,16.207879,-88.252344,2024-03-27T18:25:00.355663,59,masculino
Elisa Llorente Agustín,chehernandez@example.net,16.438239,-90.026131,2022-02-27T10:57:30.266100,60,masculino
Purificación de Tamayo,ysamper@example.org,17.549613,-91.749406,2020-06-29T12:29:14.224227,25,masculino
Hermenegildo de Medina,ainara88@example.com,16.743908,-91.662664,2022-04-05T11:06:24.175081,36,masculino
Eusebia del Santiago,mariano43@example.org,16.64221,-91.465251,2023-10-31T06:24:13.707655,58,femenino
Azeneth Esteve Feliu,mamentome@example.com,15.772177,-91.270403,2023-11-06T16:04:48.974930,21,masculino
María Luna,ferreramanu@example.org,16.300566,-88.899673,2021-12-01T02:19:30.191530,20,masculino
Adrián Paulino Castañeda Lledó,ballestercarolina@example.com,15.067582,-91.763639,2023-09-14T23:10:43.795213,34,masculino
Melchor Tudela Calderon,luisadora@example.com,16.739047,-90.03811,2022-05-04T11:51:50.756973,45,masculino
Amancio Iriarte Tejedor,bassalvador@example.com,14.158683,-88.425291,2020-05-23T17:12:17.173688,62,masculino
Carlos Company Mateu,hurtadodiego@example.net,15.93692,-88.87816,2024-01-22T23:51:23.663650,55,masculino
María Rosa Gonzalez Yáñez,csanjuan@example.com,15.462126,-92.128502,2024-07-26T16:39:02.884457,41,masculino
Encarnación Barrena Cabezas,eufemiagalvan@example.com,17.385591,-91.438686,2023-07-05T04:59:22.492869,33,masculino
Dimas Durán Benavides,abilioreal@example.com,15.150082,-90.004478,2023-08-30T08:33:06.242169,44,masculino
Emelina Antúnez Guardiola,lara47@example.org,17.495632,-91.329377,2023-08-26T12:04:30.604219,28,masculino
Rufino Figuerola-Rodríguez,gomilaflora@example.org,17.313806,-92.198376,2024-10-28T06:53:16.635587,65,femenino
Andrés Felipe Barreda Daza,dulce94@example.com,16.907785,-90.611976,2020-08-29T05:48:13.686954,60,masculino
Pancho Heriberto Lladó Vall,frio@example.net,14.793903,-89.071765,2020-03-18T07:53:06.894913,24,femenino
Paulina Mora Ibáñez,bravojenaro@example.net,17.275884,-88.779768,2024-06-09T17:32:37.903332,32,masculino
Maristela Almansa-Leon,diezadoracion@example.net,17.048005,-90.412757,2023-06-17T21:44:40.900752,37,masculino
Cipriano Ruano-Téllez,sorianopablo@example.com,14.613987,-89.593864,2021-10-08T14:33:50.453256,43,femenino
Timoteo Cuevas Murcia,svalbuena@example.net,14.842273,-92.015375,2025-01-07T15:25:54.993002,67,femenino
Alicia del Borja,jose-antonio51@example.com,15.139699,-90.211437,2024-08-04T21:31:25.401826,61,femenino
Nando Sevilla Reyes,expositoaura@example.com,17.550872,-91.827099,2023-04-22T21:19:11.212675,34,masculino
Maura Salamanca Aznar,juanitocastro@example.com,16.080418,-88.267443,2022-04-29T22:19:27.063082,20,masculino
Azucena Andres Heras,mariaalcala@example.net,16.145942,-90.882683,2022-03-02T11:42:36.124424,68,femenino
Sosimo de Serrano,correaandrea@example.net,15.489215,-88.264633,2021-07-20T04:50:01.039729,25,femenino
Hipólito Tolosa-Sureda,yagococa@example.com,17.387969,-91.520677,2021-01-04T18:39:42.205227,20,femenino
Liliana Piedad Cerezo Baños,maria-teresa65@example.net,13.706934,-88.505142,2021-06-02T07:20:20.124158,52,masculino
Epifanio Martín Tovar,victorianotome@example.com,15.193308,-92.013107,2021-10-06T22:07:48.934624,60,femenino
Florinda del Montserrat,joseharo@example.net,16.254937,-89.580111,2022-01-12T22:48:25.156705,25,femenino
Amada Monreal Suárez,qpolo@example.net,15.779202,-89.565739,2025-03-17T18:05:02.061363,38,femenino
Alicia Cases Vallés,ruth17@example.org,16.558554,-90.026909,2022-10-17T07:50:56.343511,30,femenino
Adoración Cobos Redondo,carlitosoria@example.com,16.426211,-90.745504,2021-10-18T19:07:54.957022,65,masculino
Mirta Bernat Moya,omoliner@example.net,16.223611,-91.066106,2024-09-17T14:24:48.356518,53,masculino
Trini Araujo Bayona,evangelinamadrigal@example.org,14.945887,-91.438251,2023-12-19T16:49:34.924568,68,femenino
Ariel Cabrera Salcedo,joaquinamari@example.org,15.606452,-90.487145,2020-03-30T05:18:05.704605,31,femenino
Eugenio Palmer Perera,pcoello@example.net,16.954315,-88.364689,2022-03-10T08:47:22.986699,65,masculino
Che Díez Bermúdez,fhernando@example.net,16.401288,-91.136476,2020-10-04T15:26:35.003667,60,femenino
Merche Izquierdo Segura,griselda07@example.com,14.082888,-88.396801,2023-08-07T13:00:15.068228,33,femenino
Angelino Sala Ojeda,feliciana64@example.com,14.621027,-91.483567,2024-06-27T20:39:13.854652,19,masculino
Gregorio Tomas,galvezrico@example.net,14.703854,-90.351941,2021-11-27T08:50:32.765688,67,masculino
Pancho Eusebio Almeida Priego,adan90@example.net,15.567206,-88.666839,2023-12-16T14:36:04.116366,54,masculino
Román Salomón Grau Ortuño,fannyfalcon@example.net,16.645218,-90.725688,2021-05-01T04:58:37.855768,43,masculino
Mauricio Caballero Ariza,modesta70@example.net,14.305043,-89.480748,2021-12-08T19:38:17.527160,66,masculino
Artemio Marquez Morillo,mechevarria@example.org,16.891524,-91.402751,2024-03-05T19:23:16.963666,69,femenino
Luisa Valls Llamas,jose-angeltirado@example.com,13.905895,-91.278287,2023-12-19T07:11:16.341635,25,femenino
Rosaura Cardona Solís,chicomarisela@example.org,14.24669,-90.394963,2024-07-26T15:26:13.392501,51,femenino
Soraya Paz Bosch,qalcala@example.net,17.595162,-88.645154,2020-08-27T18:11:22.889979,57,femenino
Nerea Juárez Piquer,candido37@example.org,17.105334,-90.053725,2023-04-16T21:35:28.851434,28,femenino
Eugenia de Barroso,pmatas@example.com,15.545286,-89.217715,2020-08-14T08:20:07.516262,58,femenino
Alejo Mayo Ugarte,cabanillasjoel@example.net,16.839836,-90.162671,2020-09-20T04:24:22.537065,58,masculino
Flora Rius Cortes,fcabeza@example.net,14.82585,-91.982318,2022-03-02T17:32:21.009157,36,masculino
Alcides Pellicer-Gaya,psales@example.com,14.814032,-90.989191,2020-07-11T17:52:09.873455,52,masculino
Macaria Palmer Barrera,mllorente@example.org,14.267334,-91.351828,2025-01-15T01:09:35.621327,62,masculino
Apolonia Garay Almazán,mugicajose-francisco@example.org,16.596318,-92.036662,2024-03-06T17:03:05.454629,44,femenino
Andrés Galan,odalisguijarro@example.com,15.924706,-90.595326,2024-02-11T05:57:45.211394,31,femenino
Abril Eliana Coca Castillo,nazaret21@example.net,15.296855,-89.143837,2024-08-07T21:05:57.662623,62,masculino
Adrián Palma Gárate,alcides24@example.org,17.212601,-89.161062,2020-09-02T21:46:23.843604,42,femenino
Lucila Carballo Bartolomé,xsanabria@example.com,13.724174,-90.857789,2022-09-22T15:56:10.212364,66,femenino
Jaime Vara Giralt,vazquezmarcial@example.com,17.199137,-88.390936,2023-06-02T01:24:42.688637,44,masculino
Américo Tejero Querol,fcampoy@example.net,15.701741,-91.180965,2024-10-30T18:55:14.180918,49,masculino
Vinicio Berrocal Montserrat,blascases@example.com,15.294315,-89.557618,2023-04-26T03:42:28.147116,69,femenino
Maite Morcillo-Piquer,wilfredo89@example.com,16.669144,-88.853927,2020-07-11T09:40:02.671120,26,masculino
Teodosio Garrido Ropero,agracia@example.com,17.418408,-89.87324,2024-05-24T03:57:25.000473,60,masculino
Herminia Bustamante Milla,qmilla@example.com,14.044185,-90.542688,2021-12-27T03:08:49.418733,47,masculino
Olegario Sánchez Bautista,blazquezciro@example.com,13.906167,-90.745674,2020-07-06T07:57:37.325711,31,femenino
Ruperta Castillo Barreda,herminia16@example.com,15.040068,-89.178958,2024-08-21T18:26:20.437747,42,femenino
Teófila Aznar Maestre,pastor19@example.net,16.78324,-88.88911,2021-02-16T16:56:36.242744,34,masculino
Consuelo Campoy Ordóñez,dario49@example.org,15.628258,-89.229001,2024-04-14T23:33:41.514042,21,femenino
Raquel de Lastra,escribanoleandro@example.net,14.619311,-92.018665,2024-01-19T01:09:30.934453,59,masculino
Felicia Aguado Escudero,clarisaperez@example.org,16.792356,-88.406592,2020-10-02T05:34:00.946245,30,masculino
Artemio Garrido Peñalver,vsantiago@example.org,16.247476,-91.321966,2021-12-18T21:22:00.831047,48,masculino
Renata Blazquez Badía,faustoayala@example.net,16.012275,-91.406345,2020-06-07T06:22:07.184815,62,femenino
Nadia Rodrigo Torralba,rribas@example.org,16.844282,-91.612065,2024-01-04T13:31:49.297867,56,masculino
Francisco Jose Ropero Cantero,irene97@example.net,16.888947,-91.62856,2023-07-18T05:08:30.915718,37,masculino
Damián Prats Ballesteros,fuentemarcial@example.org,16.072607,-88.491563,2024-01-28T15:09:40.875962,54,femenino
Espiridión Mosquera-Carretero,valenciamargarita@example.com,15.326283,-89.36844,2020-12-06T20:12:18.449049,22,masculino
Luisina Grau Vall,calixto60@example.com,14.117795,-89.132828,2020-02-06T08:35:25.771459,61,masculino
Tomás Millán Román,srios@example.org,16.964532,-89.979677,2022-02-24T17:58:13.045112,20,femenino
Carlota Seguí Paredes,ruedarafaela@example.org,15.884256,-89.587763,2021-04-17T00:36:52.080590,22,femenino
Gracia Zamora-Bermúdez,vmenendez@example.com,13.751874,-90.577759,2021-03-05T20:12:44.597748,49,masculino
Antonio Vicens Carbonell,vicentaolmedo@example.com,15.477446,-90.815029,2023-11-12T02:10:17.315452,47,masculino
Desiderio Calderon Coll,hector29@example.org,15.485497,-89.291439,2024-01-14T18:59:50.659391,59,femenino
Chus Uribe Simó,omoraleda@example.com,16.225241,-88.529568,2020-10-19T20:27:07.750335,67,femenino
Joel Salamanca Mateo,domitila05@example.net,15.605982,-88.914488,2020-05-23T22:15:20.827274,55,femenino
Jennifer Arellano Barberá,paz41@example.net,15.021449,-91.29347,2024-08-03T14:46:08.592312,23,femenino
Marino Vendrell Planas,carmengol@example.net,17.314688,-91.30016,2023-06-18T13:00:52.144816,47,femenino
María Del Carmen Tamarit Vallejo,bernabesanjuan@example.org,15.079226,-90.273343,2024-04-22T05:56:46.097156,38,masculino
Oriana Blasco Vargas,anibalhuguet@example.net,15.698955,-90.845218,2022-04-29T05:39:51.640058,34,femenino
Luciana Yáñez Cuenca,ramon46@example.com,14.8466,-89.855764,2024-02-11T10:26:31.390083,35,masculino
Amaya Rosa Nadal Bastida,ciriaco86@example.com,15.818172,-91.516669,2021-05-03T20:42:57.569397,33,femenino
Trinidad Brígida Mínguez Bertrán,yesicaolmo@example.com,15.703169,-89.191525,2025-02-20T07:09:05.710192,62,femenino
Belén Blazquez Menendez,imoya@example.net,16.348202,-90.287633,2023-09-25T11:13:33.465174,68,masculino
Araceli Roda,alejandro54@example.org,14.081519,-91.391455,2025-01-19T05:39:32.597207,62,masculino
Raquel Torre Fernandez,emigdiocortina@example.org,14.955445,-89.915622,2021-07-27T19:50:10.999983,48,femenino
José Luis Zurita Arellano,sarita92@example.net,15.444566,-89.241665,2021-12-31T19:45:59.763212,39,femenino
Cipriano Daza Río,reigpanfilo@example.net,16.581705,-91.189243,2023-10-27T23:18:56.567814,34,masculino
María Jesús López Sanchez,bibianaharo@example.com,14.194689,-91.510404,2025-02-16T05:23:00.049096,25,masculino
Yaiza Ferrera Pedro,xserrano@example.com,14.485318,-89.271721,2024-02-18T12:48:49.155541,35,femenino
Lucía Riquelme,olgaflores@example.net,17.720094,-88.886224,2020-09-25T11:43:18.009238,36,masculino
Amancio Terrón-Pera,villalobosrenata@example.org,15.179612,-91.060703,2021-07-07T00:17:56.097543,63,masculino
Elías Sancho Vilanova,paulinaruiz@example.org,14.824676,-88.305391,2025-01-10T00:13:16.538415,53,femenino
Sebastian del Olmedo,riberabalduino@example.com,16.559411,-91.782254,2022-08-31T21:02:14.579305,66,femenino
Guadalupe de Perera,amaromontalban@example.org,14.120609,-92.249712,2024-06-15T23:21:21.949085,36,femenino
Rosa María Coll Cervantes,madridyessica@example.com,15.662728,-90.903106,2023-09-12T08:32:16.495490,21,femenino
Reynaldo Somoza Sanabria,bernadalejo@example.com,17.558361,-90.34131,2021-02-22T08:42:25.585526,70,masculino
Leocadio Álamo Rocha,maldonadojordan@example.com,15.342901,-91.996263,2020-08-24T09:09:30.576218,58,masculino
Hugo del Barros,valeroedelmira@example.net,14.322081,-88.974317,2020-02-01T21:12:59.215218,37,masculino
Maricela Herranz,luperoman@example.org,17.775064,-91.814349,2023-04-07T17:01:38.271732,66,femenino
Lucho del Exposito,zabaletaponcio@example.org,16.185902,-89.057963,2025-01-23T13:41:21.187104,32,femenino
Lilia de Portero,oarranz@example.com,15.547109,-90.484844,2025-03-18T04:23:12.125396,55,femenino
Raúl Alegre-Palau,ochoajose-angel@example.net,14.952059,-89.753788,2023-06-28T18:14:20.826356,57,masculino
Rolando Márquez Cañellas,ortunocarina@example.com,17.58512,-91.44807,2024-04-27T04:18:07.514736,31,femenino
Severo Sobrino Tejero,obduliacepeda@example.org,16.407755,-91.656066,2023-10-21T02:28:03.152313,29,masculino
Alicia Marcos Fortuny,floressoraya@example.org,14.341784,-90.625078,2021-09-04T05:52:52.285061,62,femenino
José Ángel Heliodoro Sáenz Isern,feijoolucho@example.com,14.894163,-91.350947,2024-07-30T12:27:33.095975,63,femenino
Toribio Mármol Llano,pedroulises@example.com,16.582249,-90.438472,2023-12-12T23:47:38.231107,61,masculino
Evelia Estévez Valderrama,zpedrero@example.net,17.488035,-89.069905,2021-06-01T10:17:44.520554,58,masculino
Prudencio Rodriguez Bermúdez,iescribano@example.com,15.44307,-90.067294,2021-09-15T03:20:21.396098,59,masculino
Fernando Marqués Medina,krojas@example.net,17.424487,-88.910812,2022-05-11T04:00:29.686566,22,masculino
Alondra Osorio Royo,feliciana01@example.net,14.380283,-91.038792,2023-05-21T18:03:29.412634,65,femenino
Loida Cuesta Anguita,reinarios@example.org,15.500529,-90.378338,2020-09-01T21:09:57.102735,37,femenino
Roque del Paredes,mantunez@example.org,17.564973,-90.248064,2023-08-10T08:34:10.275411,49,femenino
Florencia Saldaña Benítez,benitapedraza@example.com,14.029812,-92.136571,2021-09-01T21:31:37.035445,45,femenino
Edelmiro Carballo-Amo,angelinavillaverde@example.com,16.175226,-92.193954,2024-11-07T05:47:09.260226,32,masculino
Eleuterio Juliá Salmerón,emmamachado@example.net,17.798247,-89.543646,2024-11-12T22:30:08.792368,35,masculino
Chus Casado Cerdá,sansfrancisco-jose@example.net,16.828747,-91.581718,2022-05-13T12:00:36.592699,51,femenino
Sandalio Montenegro Olivera,manriquetatiana@example.com,17.455898,-91.555894,2024-07-09T14:42:54.656469,55,femenino
Régulo Pardo Verdugo,domingofont@example.org,16.302617,-90.283924,2021-04-04T06:14:29.632433,23,femenino
Alba Paniagua Peinado,ncastilla@example.org,15.12664,-90.933436,2020-05-07T13:10:39.272118,60,masculino
Paca Tejero Zaragoza,krecio@example.org,17.216706,-90.947805,2020-08-31T03:06:41.965267,62,femenino
Miguela Benavent Sandoval,wvillar@example.org,14.881693,-88.424706,2024-08-30T05:06:02.993305,70,masculino
Micaela de Castelló,dvalverde@example.org,15.564786,-91.01048,2022-10-02T02:24:29.385062,38,masculino
Celestino Cecilio Mora Gomis,aurelia41@example.com,17.677757,-90.642882,2021-01-15T19:39:19.911978,50,masculino
Eli de Mateo,valverdefelipa@example.org,16.396408,-90.075366,2023-02-22T02:06:47.882722,44,masculino
Calista Donoso-Nebot,andradeceferino@example.org,14.469088,-90.816705,2025-01-14T03:33:34.188039,66,femenino
Dulce Galvez-Riera,valencianotamara@example.net,16.264176,-89.184039,2022-11-24T09:38:16.208288,31,femenino
Jose Antonio Donato Ramis Martorell,sbeltran@example.org,15.951801,-88.496542,2020-11-02T16:05:43.024134,46,femenino
Julie Sobrino Frías,elvira25@example.net,14.197847,-88.310098,2021-09-11T11:06:28.738821,56,masculino
Gloria Castrillo Pellicer,montanajose-antonio@example.com,16.61011,-91.025924,2020-08-25T16:31:08.667991,18,femenino
Delia Chico Caballero,manriquerodrigo@example.net,14.082158,-88.231746,2022-03-22T04:00:32.114900,25,femenino
Santos Morán Milla,maria-carmencuervo@example.com,17.582949,-89.64439,2025-04-16T03:30:52.772957,27,femenino
Leticia Mendez Valencia,boschruben@example.net,17.523878,-91.103368,2022-06-06T00:16:54.260728,63,femenino
Cándido del Atienza,lucenaana-belen@example.net,15.40351,-90.321752,2024-09-07T16:59:54.887367,48,masculino
Eloísa Aguiló Campos,qcanete@example.net,15.572825,-91.706968,2021-12-10T14:18:19.240559,30,masculino
Flavia Arrieta Pérez,ferrerasprimitivo@example.net,17.24251,-91.167386,2021-07-13T21:03:25.481068,68,femenino
Ligia Sanjuan Losa,castellscleto@example.com,15.093488,-89.070359,2021-12-24T23:48:24.688759,35,masculino
Manuela Pavón Cobos,eligiaverdu@example.com,14.85964,-91.075921,2022-08-28T03:12:53.653679,55,femenino
Alejo Cerro Mínguez,dvives@example.org,17.247568,-90.469156,2023-03-22T02:59:24.342005,48,femenino
Berta Mosquera,fermin69@example.net,15.063004,-89.172222,2024-06-22T14:51:03.814545,42,femenino
Evangelina Vendrell-Vergara,emari@example.org,17.524694,-88.734633,2021-12-15T14:26:09.372481,62,masculino
Horacio Mena Amor,plara@example.net,16.04437,-91.342394,2023-01-25T14:10:52.478284,67,femenino
Lupe Tenorio Donaire,rcoloma@example.org,13.878954,-89.246709,2020-03-02T05:53:49.463066,63,femenino
Claudio Alfonso Sainz,silvio26@example.net,15.282923,-89.578876,2021-01-30T13:01:43.137287,70,masculino
Remedios Soto,cerveraaurelia@example.org,15.730847,-92.14822,2022-12-24T02:25:32.615912,50,femenino
Lucila Peñas Mir,angelnoriega@example.net,17.265771,-88.715819,2021-11-18T07:18:36.364907,46,masculino
Marcos Tomé-Fernandez,leonmartin@example.org,15.856399,-90.426595,2024-12-31T10:47:27.004122,64,masculino
Rogelio Ernesto Galan Torrijos,alexandra58@example.net,15.380912,-89.615397,2021-06-14T11:57:26.858828,27,masculino
Luciano Pino Prat,maria-teresa24@example.org,15.624911,-88.326265,2021-07-11T23:49:53.653142,39,femenino
Fulgencio Salamanca Jerez,mgargallo@example.net,16.36433,-88.807762,2021-06-09T23:42:57.608494,61,femenino
Obdulia del Cervantes,herasjose-carlos@example.org,17.611972,-89.730123,2023-07-23T10:55:01.792315,66,femenino
Coral Guerrero,cabreraseveriano@example.com,17.27677,-92.152814,2023-10-23T15:35:58.837730,22,masculino
Noé Cervantes Adadia,santostamarit@example.com,16.28776,-88.524191,2023-06-16T00:32:42.578359,32,masculino
Felipe Eric Barranco Borrás,bienvenidaarcos@example.org,15.479283,-91.896383,2022-03-21T16:22:48.901351,58,masculino
Ángel Arce Puerta,vestrada@example.com,15.519082,-89.454595,2024-08-27T20:26:20.660008,19,masculino
Eustaquio Campo Naranjo,walter88@example.com,15.029936,-92.069911,2024-09-21T03:12:38.763686,40,femenino
Teodoro Varela Solé,guadalupe15@example.org,15.465816,-91.298791,2023-11-19T08:18:31.532206,44,masculino
Plinio Estrada-Alcalá,morena49@example.net,14.396933,-91.97623,2024-01-09T02:27:37.851969,42,masculino
Marcos Ramirez Roma,chema61@example.org,15.740436,-89.909056,2025-03-19T10:27:11.574462,32,femenino
Etelvina Hurtado Agudo,rodolfo37@example.com,16.315409,-90.415761,2025-01-24T19:04:29.258772,60,masculino
Lupe Porfirio Alberdi Jurado,jimena30@example.net,17.385525,-90.392462,2020-08-17T08:27:05.198162,36,masculino
Cebrián Hermenegildo Valverde Mercader,marquezquirino@example.net,14.002834,-88.424534,2021-03-04T10:33:30.726053,55,femenino
Jorge Coronado Sanz,severo87@example.net,16.319649,-90.560333,2024-04-04T20:13:32.221066,34,femenino
Rico Huertas,zaragozavictoriano@example.net,17.165746,-91.48321,2023-09-27T06:46:14.056267,42,femenino
Álvaro Caparrós Barrio,constanzaconde@example.org,14.137278,-90.736406,2021-09-28T12:53:12.114649,40,femenino
Isaura Carnero,lilianatorrijos@example.org,17.770037,-91.089554,2024-10-09T19:32:49.673210,60,femenino
Rufina Baquero Santana,armidaribes@example.com,14.82537,-89.979691,2022-12-29T23:14:23.513108,61,masculino
Joaquina del Almeida,ainiguez@example.net,17.43353,-89.244794,2021-02-26T17:18:19.023443,36,masculino
Alonso Roda Ocaña,barrenatere@example.org,16.188966,-90.855484,2025-03-28T01:44:14.119207,58,masculino
Alejandra Madrid Rebollo,maria-josecerda@example.net,16.245654,-89.521166,2025-03-12T22:23:28.192648,64,masculino
Florentina Piñeiro Sanabria,fpena@example.net,16.275817,-88.596045,2025-02-13T09:46:02.210916,59,masculino
Benita del Carrasco,brigidapozo@example.net,14.966625,-90.492625,2020-09-04T01:10:31.422511,55,femenino
Silvestre de Alsina,abigail86@example.net,16.702675,-91.930453,2022-01-05T18:47:58.773395,36,femenino
Duilio del Oliva,leonciofabregat@example.net,16.764672,-91.579876,2024-01-25T00:34:48.009592,26,femenino
Sandalio Rius Alcázar,hilariobautista@example.org,15.876495,-88.554703,2023-02-26T05:32:59.397670,28,femenino
María Belén Atienza Hierro,quesadavalentin@example.org,17.447601,-88.42883,2022-11-13T02:46:18.122715,69,femenino
Buenaventura Vara Mancebo,olallamontana@example.net,16.760893,-90.911267,2023-03-05T22:33:14.272000,25,femenino
Cándida Matas Clemente,severianomas@example.com,17.647863,-91.722896,2020-04-28T06:08:14.379020,32,femenino
Vanesa Díez-Roldán,warevalo@example.net,17.665806,-89.001191,2023-07-26T09:09:16.083166,41,masculino
Esther Rico,tcompany@example.com,16.941796,-92.242934,2020-12-22T17:15:13.148890,52,masculino
Juana de Gomis,rosa27@example.org,15.564623,-89.541404,2022-12-27T00:13:34.164461,61,femenino
Manuela Cañete Pont,jose-marifrutos@example.com,16.096696,-88.928089,2023-06-08T14:05:28.590093,41,masculino
Soraya Peláez Bru,aurelioledesma@example.com,16.46683,-90.366945,2023-07-30T21:36:33.190825,57,femenino
Almudena Trinidad Beltran Fabra,alejandragallardo@example.com,17.452549,-91.392394,2021-08-11T04:11:04.242132,22,femenino
Curro Falcón Carpio,sherrera@example.net,17.428489,-91.06102,2023-09-27T06:53:05.968617,44,masculino
Zoraida Heras Montoya,ricardo78@example.net,14.273086,-88.420328,2021-11-27T22:49:43.380972,37,femenino
Geraldo Vilalta-Valencia,zcabello@example.net,14.176094,-91.33732,2022-06-29T19:05:13.130161,52,masculino
Zoraida Frutos Peláez,severiano09@example.org,15.293448,-90.778853,2023-12-09T00:05:58.673883,65,femenino
Eladio Rios Marquez,gustavomurcia@example.org,16.108095,-89.320943,2022-01-06T21:01:36.318562,44,masculino
Josep del Jiménez,dtrujillo@example.org,17.118142,-89.775826,2023-11-22T13:16:16.413186,35,masculino
Carla Chaves Torres,yesicabarral@example.net,16.530151,-91.409194,2020-03-06T14:48:22.492006,46,masculino
Sebastian Atienza Agudo,ocervantes@example.org,17.207346,-91.892646,2020-05-11T20:31:52.781341,61,femenino
Adalberto Gil Vega,dperea@example.net,15.93231,-88.290846,2023-05-22T04:07:02.858094,40,masculino
Zaira Julie Torrents Alcázar,reinaalbano@example.org,15.332373,-91.521785,2022-10-24T01:14:56.981434,25,femenino
Julio Madrid-Alemany,gescobar@example.org,14.075861,-91.430366,2022-10-14T06:57:07.035995,58,masculino
Clemente del Pablo,natalia61@example.com,13.907372,-90.932612,2025-02-04T00:06:51.868147,26,masculino
Marcia Hervia Gonzalez,isaura10@example.org,13.981302,-89.162855,2022-02-25T05:25:24.349059,31,masculino
Mamen Tamarit Barba,donosocelestino@example.com,17.033517,-91.344705,2024-06-27T21:51:29.902842,67,masculino
Marcia Bustos Álvarez,grashector@example.net,16.933439,-89.856475,2024-09-17T19:47:48.466710,35,masculino
Elba Artigas Benavente,trini89@example.net,17.748862,-90.085117,2020-03-04T19:52:47.129721,69,masculino
Adriana Galan Cobos,tbenitez@example.org,14.150698,-88.747564,2022-12-30T01:25:43.760201,26,masculino
Silvia Porcel-Mármol,ychaves@example.net,15.168793,-89.067431,2023-11-05T20:27:31.647453,55,femenino
Petrona Oliva,cabanasulises@example.org,13.764702,-91.211993,2024-06-15T00:00:02.224106,26,femenino
María Del Carmen Puente Morera,llanomiguela@example.com,15.856951,-89.242772,2022-08-09T18:05:32.788409,48,femenino
Manola Perez Rosales,irmapinto@example.org,16.88987,-90.195724,2024-02-06T23:28:39.818585,24,femenino
Sabas Duilio Beltrán Blanca,fabio62@example.net,15.765739,-88.423796,2022-01-25T20:28:40.630147,20,femenino
Ascensión Bravo Adadia,victor54@example.org,15.577974,-88.347493,2020-09-14T01:25:00.784510,21,femenino
Ildefonso Sanchez Vila,bcalderon@example.org,17.173924,-90.552278,2021-11-17T13:57:26.770058,24,femenino
Marc Morata Plaza,manzanaresseveriano@example.com,16.620845,-90.481394,2024-02-20T13:28:16.234435,23,femenino
Yolanda de Vázquez,isidorapintor@example.org,16.194019,-92.030703,2020-09-26T08:16:43.245247,35,femenino
Eloy Jose Manuel Coello Barroso,trinidadllorente@example.com,15.261708,-89.850693,2021-08-04T12:13:04.128627,36,femenino
Geraldo Infante Huerta,dferran@example.org,15.772759,-90.536183,2020-09-19T20:16:50.203580,68,masculino
Hector Márquez Pinto,valerio56@example.net,17.19645,-89.631242,2025-03-04T23:07:49.207279,67,masculino
Eutimio Montes Font,lmiralles@example.com,15.463287,-88.658827,2025-02-22T07:02:51.591836,44,femenino
Quirino Ovidio Tudela Herrera,renato46@example.com,17.092419,-90.665206,2020-08-08T22:31:23.423488,64,masculino
Chus Escolano-Amores,cgallego@example.com,14.981448,-91.018653,2024-05-31T15:47:44.404388,34,femenino
Sebastián Rebollo Valera,evitamateo@example.org,17.609729,-89.484034,2021-05-05T04:39:03.342169,48,masculino
Pepito Rocha Pi,sanchezelba@example.com,14.074022,-91.950006,2023-02-03T12:48:05.424716,45,masculino
Lilia del Arco,judith89@example.net,16.752815,-90.772148,2024-11-08T21:46:05.764319,26,masculino
Rodrigo Hurtado Padilla,florarregui@example.net,16.104507,-89.997496,2025-03-23T03:59:13.699692,39,masculino
Primitiva Mármol Ros,alarconclimaco@example.com,15.384315,-88.71821,2021-03-06T16:11:14.050559,66,femenino
Manuela Giner,zperello@example.com,17.259178,-89.343651,2024-02-07T07:37:03.324677,36,femenino
Nuria Vall-Contreras,amador71@example.com,15.141749,-89.930534,2022-03-17T23:28:22.812694,31,masculino
Bautista Cifuentes Olivé,olegario73@example.net,16.392619,-91.380596,2022-07-25T20:38:10.887042,24,femenino
Ariadna Ríos Santamaria,bonifacio40@example.net,17.166031,-90.793,2020-08-11T06:16:30.489912,66,femenino
Miriam Canales Córdoba,ascensiondiaz@example.net,16.05381,-88.990392,2020-11-06T15:47:12.088283,53,masculino
Inmaculada del Guardiola,lespinosa@example.net,16.196879,-89.602892,2023-06-29T03:42:51.946881,62,femenino
Albina Figueroa Sancho,aporcel@example.net,13.818708,-91.179591,2021-02-20T16:43:46.432623,66,femenino
Renato Barros-Cal,piomoreno@example.org,17.478304,-90.860804,2022-06-06T15:10:13.558859,29,masculino
Nico Tovar-Álamo,edelmira69@example.com,16.021916,-90.656784,2023-02-12T18:27:20.006571,27,masculino
Feliciana Seco Duque,zaida99@example.org,14.076207,-90.125021,2023-07-27T20:53:28.634351,42,femenino
Azahara Gómez Mayoral,espanaraul@example.net,15.559948,-91.654622,2020-10-01T05:32:14.036258,37,femenino
Hortensia Cervera Pla,festevez@example.net,16.885026,-89.972866,2022-11-08T11:56:08.778315,23,masculino
Leopoldo Diaz Tovar,enrique25@example.com,14.337878,-89.206813,2023-04-16T15:13:04.595909,21,masculino
Adelia Tormo Cerezo,ofeliaplana@example.net,14.815622,-89.586051,2022-09-07T12:46:38.975133,49,femenino
Guadalupe Téllez Ricart,ktorres@example.org,15.398153,-91.416167,2023-01-01T20:27:19.417578,50,masculino
Esteban de Llobet,brigidamalo@example.org,15.115209,-91.845352,2024-02-23T14:37:11.695515,61,femenino
Perlita Valbuena-Vicente,carbonelljulio@example.net,15.86043,-91.03548,2024-05-16T03:22:07.641946,32,femenino
Macarena Arnaiz Sainz,teodorocalatayud@example.net,17.736227,-92.075394,2024-05-29T07:24:29.574108,31,femenino
Eustaquio de Sandoval,pablo17@example.org,17.575829,-89.153867,2024-02-13T16:46:12.551679,66,femenino
Cruz del Roman,encarnacionchaparro@example.org,14.886733,-91.808064,2024-04-27T05:16:47.378242,49,femenino
Lucas Orozco Lucas,moisesmarco@example.com,14.420349,-90.741149,2023-01-16T02:05:47.066834,63,masculino
Ximena Bustos,maricelareina@example.org,15.751076,-88.883248,2025-04-09T09:20:25.498540,69,femenino
Pascual Cazorla Iborra,leonormontserrat@example.org,13.99551,-88.766766,2024-01-17T05:34:56.785416,20,femenino
Laura Cisneros Leiva,cperez@example.org,13.77684,-88.523234,2023-05-14T05:11:10.574522,38,femenino
Heriberto Villalba Lobo,walter75@example.net,16.050939,-89.391054,2020-01-05T19:08:41.299042,44,femenino
Pío Sedano Palma,pugaisaias@example.com,14.172211,-92.214488,2024-05-19T04:13:35.158341,38,masculino
Edelmira Moraleda Luque,carla92@example.net,16.985421,-89.765686,2024-07-11T16:05:32.556953,62,femenino
Virginia Atienza Arteaga,seguraalcides@example.org,14.061333,-88.837614,2024-12-08T01:37:42.277476,33,femenino
Isidro Sastre Abascal,sfrancisco@example.org,16.114372,-90.151754,2024-09-07T08:04:21.403100,43,femenino
Cebrián Ulises Lledó Bueno,josue15@example.net,16.7578,-91.391555,2024-10-19T08:11:43.381960,67,masculino
Amancio Prieto Mayoral,timoteobou@example.net,14.013155,-89.703779,2020-07-03T15:40:24.863048,51,masculino
Jorge Bermejo,doritagonzalo@example.net,17.414283,-90.867561,2023-08-12T03:26:06.265250,64,masculino
Adalberto Nuñez Carreño,ecatalan@example.org,14.668702,-91.699579,2021-03-20T03:34:38.621712,30,masculino
Pío Calatayud Calderón,quirino42@example.com,16.169836,-89.183117,2024-02-09T11:40:56.796868,59,masculino
Miguel Ángel Clavero Bayona,cordobavalerio@example.com,14.426299,-89.131323,2023-11-02T11:50:22.352828,49,femenino
Ángel Requena Salas,chemacabrera@example.org,16.793228,-89.184504,2023-12-30T17:14:56.233103,46,femenino
Pastora Plana-Ortega,ymiranda@example.org,17.243412,-89.728409,2021-04-25T16:43:45.595934,27,femenino
Edelmiro López Amor,hernan89@example.net,13.979974,-90.486947,2020-12-31T23:13:35.740850,37,femenino
Emiliana Ballester Heras,hpolo@example.org,16.124821,-90.857037,2022-08-27T04:09:04.476975,22,femenino
Andrea Lucía Albero Paniagua,eligio69@example.com,15.593144,-92.14581,2021-12-09T21:18:10.828557,41,femenino
Rico Sotelo Beltran,bauzaalberto@example.com,14.014597,-88.756575,2021-02-22T12:48:48.057463,23,femenino
Ruperto Puig Velázquez,eusebia86@example.com,15.597118,-90.027303,2023-09-23T11:43:29.029544,68,masculino
Miguel Corominas Lobato,menendezcayetano@example.net,15.543908,-88.979755,2024-11-21T13:30:07.823070,59,masculino
Julio Morillo Portillo,menendezjovita@example.com,15.01826,-90.349921,2023-11-17T02:15:36.875101,27,masculino
Ambrosio de Boix,dcarmona@example.net,15.547145,-88.975036,2023-03-27T02:44:05.285934,39,masculino
Nazario Raimundo Echevarría Carreras,cervantesjudith@example.org,15.768651,-91.592508,2020-11-13T19:54:44.011621,33,femenino
Lourdes Villar Jove,ramirocastaneda@example.net,17.763043,-90.151319,2024-02-24T08:29:18.645146,57,masculino
Quique Carranza-Andreu,noemi64@example.net,15.191982,-88.536459,2020-05-03T21:49:37.756802,42,femenino
Maxi Benítez-Valderrama,xvicente@example.org,16.875306,-89.516519,2022-08-27T05:25:47.883203,21,femenino
Carina Pedro-Criado,maria-teresa19@example.net,13.970239,-91.912526,2023-11-03T03:57:54.617176,61,femenino
Raimundo de Arregui,hidalgoarturo@example.com,14.865003,-89.332692,2021-12-07T02:26:44.126816,60,masculino
Chuy Aranda Rius,modestohurtado@example.com,15.066784,-89.910768,2024-11-11T17:26:34.013334,27,femenino
Elba Bermejo Peralta,vallesignacia@example.org,14.97195,-89.610176,2020-12-13T22:07:30.321211,60,femenino
Amalia Quero,solarosenda@example.com,14.228702,-89.393781,2024-02-09T14:48:06.175299,23,femenino
Fernando Armando Saura Aguiló,herberto49@example.com,15.99158,-89.661678,2023-12-05T18:02:53.530780,39,masculino
Jesús del Uriarte,luzhigueras@example.org,16.447477,-88.901268,2020-01-13T08:56:56.265770,65,masculino
Aitana Guijarro Olivares,naranjoabel@example.net,16.348702,-90.564034,2021-12-30T23:02:45.200035,41,masculino
Baldomero Cristian Gárate Rivas,jbarreda@example.net,15.18665,-91.560922,2021-06-26T20:26:02.080580,31,femenino
Édgar Guardiola Vizcaíno,dperales@example.net,17.58544,-90.306289,2020-06-13T16:59:11.624069,32,masculino
José Antonio Cañellas Prado,barriostrinidad@example.net,14.335275,-91.087252,2025-02-13T13:12:28.537764,68,masculino
Esteban del Miró,umorera@example.com,15.781528,-90.08694,2021-06-11T14:02:28.248041,65,masculino
Cosme Cerdán Canales,currocordoba@example.com,16.41391,-88.70679,2022-06-23T03:08:30.474610,57,masculino
Azeneth Palma Galiano,dmendez@example.com,16.14871,-91.667564,2024-07-11T18:52:03.864652,29,masculino
Cayetano Mayo Arjona,petronamosquera@example.org,16.65685,-92.120861,2020-06-25T22:47:51.361992,41,masculino
Gaspar del Vilanova,martinezjuan-bautista@example.org,17.675313,-89.796559,2020-03-01T07:09:23.908769,66,femenino
Tania Santamaria Iborra,sevillacristian@example.org,14.659412,-91.319409,2020-08-23T14:45:48.401304,69,femenino
Severo Girón Castrillo,palmiraperez@example.com,17.406295,-91.504534,2023-08-24T08:52:33.586695,61,femenino
Lupe Jove Benavides,baronhector@example.net,15.592888,-91.144736,2022-05-10T05:47:48.671924,42,femenino
Arturo Mármol Carvajal,serraaureliano@example.org,17.661699,-88.950746,2024-11-27T18:48:40.484134,69,masculino
Samanta Prat Valderrama,pineiroisabela@example.com,17.279308,-92.086063,2020-12-01T05:45:40.726425,48,femenino
Wálter Exposito,lino72@example.org,15.973617,-91.879382,2023-04-06T08:17:45.472462,51,masculino
Delfina Miriam Marquez Valenzuela,dtello@example.org,14.868758,-89.171221,2021-06-26T18:08:21.535440,35,femenino
Hugo Flores Zaragoza,eva-mariaaliaga@example.com,17.411755,-91.695871,2024-02-25T21:21:12.449567,45,masculino
Julia Tormo Núñez,roman42@example.org,17.580294,-91.389644,2021-09-10T14:40:35.896862,46,femenino
Albino del Barragán,wavila@example.net,17.514935,-90.598923,2025-04-23T04:49:10.027674,43,femenino
Aureliano Huguet Hernando,bibiana03@example.net,14.66669,-88.222446,2024-06-30T04:34:44.816295,41,masculino
Felicidad Durán Echeverría,doramonreal@example.net,13.815569,-88.483614,2023-09-15T08:55:03.528666,63,femenino
Albina Ortiz-Cisneros,piedadugarte@example.net,16.944661,-91.735842,2021-08-22T13:15:22.472181,36,femenino
Alma Bosch Barbero,eligiagilabert@example.org,16.553895,-91.73095,2022-10-18T07:00:31.648327,63,femenino
Fito Fortuny Castrillo,liliana25@example.org,15.539266,-92.27847,2020-02-12T12:14:46.979287,23,masculino
Ofelia Cifuentes-Cantero,camilo56@example.net,14.749288,-88.876651,2020-07-14T23:58:28.373525,53,femenino
Felix Borja Criado Rueda,lmolins@example.net,14.155866,-91.118784,2025-02-22T07:52:14.082864,37,masculino
Roberta Felipa Godoy Echevarría,umelero@example.net,13.895773,-90.578715,2021-07-25T08:28:51.715885,68,femenino
Pánfilo Abellán Posada,espadaeligia@example.com,13.957509,-88.86958,2024-11-21T18:46:48.041707,49,masculino
Consuela Micaela Calvet Valderrama,natanaelbermejo@example.org,16.291015,-89.942305,2021-11-03T19:11:36.526454,63,masculino
Carina Borrego Narváez,qalberdi@example.org,14.894215,-92.293586,2021-04-29T02:25:00.678001,40,masculino
Gabino Jerez Campoy,asensiorolando@example.com,16.039721,-91.532013,2023-11-22T04:31:48.319126,60,masculino
Vasco Riba Ureña,iortega@example.com,15.846287,-90.821525,2020-07-15T18:25:48.412171,51,masculino
Rocío Gomis Cánovas,zbeltran@example.org,15.30086,-90.372446,2021-07-26T02:42:06.807310,58,femenino
Dorita Calvo Benavent,francisco62@example.net,17.722262,-91.260034,2020-05-25T12:03:03.198552,19,femenino
Fortunato Tolosa Anguita,mcozar@example.com,16.932932,-90.88631,2020-10-31T18:37:20.457066,64,masculino
Fito Fuertes Falcón,qlara@example.com,16.863156,-89.285733,2021-07-30T22:43:44.276671,39,masculino
Amador Pozo Tudela,baltasarpalomo@example.org,13.881776,-90.061344,2022-04-09T12:58:51.028739,70,masculino
Sergio Natalio Tenorio Flores,amigohilario@example.org,17.104573,-89.492801,2023-05-23T01:37:51.361567,62,femenino
Jordi Carlos Mendez,fsotelo@example.net,16.290117,-88.97286,2021-05-29T02:23:10.494216,22,femenino
Gala de Peláez,lpeiro@example.com,13.851634,-91.473477,2020-03-27T13:19:38.027127,68,masculino
Josefa Lago Gonzalo,cintia02@example.net,17.331741,-91.006057,2023-07-18T20:46:52.199913,37,femenino
Nicanor Núñez Riba,carolinabarrera@example.com,17.755403,-90.073574,2024-05-06T16:16:19.468197,34,masculino
Lupe Taboada Gutiérrez,fmartinez@example.com,16.788493,-91.516476,2024-10-17T08:33:43.936930,40,masculino
José Villanueva Colom,sanchezfulgencio@example.org,17.249773,-90.939109,2025-02-28T23:11:42.862103,25,femenino
Bernardino Arnau,rbermudez@example.com,15.491501,-90.659911,2021-01-26T17:11:42.735403,46,femenino
Silvestre Jordá Montenegro,bonetroman@example.net,15.09005,-91.534049,2022-02-09T20:31:15.384526,62,femenino
Tatiana Llorente Vizcaíno,yalberola@example.net,15.206122,-89.031107,2023-04-23T17:03:48.522410,35,masculino
Ricarda Rivas,ribaseutimio@example.org,16.681033,-91.976399,2023-01-04T04:08:46.026493,56,masculino
Purificación Cabrera-Camacho,maciasrufina@example.net,15.936445,-90.983033,2024-09-03T10:23:47.432701,23,femenino
Dulce Piñol Torralba,larcos@example.com,16.409769,-91.043367,2022-02-20T18:08:06.989758,56,femenino
María Fernanda Nieves Querol Arias,smunoz@example.org,14.383244,-90.479976,2020-04-05T14:56:49.857834,46,masculino
Águeda Leiva Perales,nebotolimpia@example.com,16.679939,-88.56241,2021-08-26T05:32:34.610565,57,femenino
Tecla Cabello Goñi,marcelosalazar@example.com,14.825677,-88.281888,2021-06-06T15:58:19.898261,21,masculino
María Del Carmen Borrell Expósito,agalvan@example.net,16.451854,-90.634538,2022-07-28T20:04:24.746021,50,masculino
Teófila Pereira,villalbamaxima@example.org,17.606437,-91.714604,2020-05-07T07:04:18.892082,56,femenino
Graciana Cerdá,duranguadalupe@example.org,13.842676,-92.024343,2024-06-11T16:56:38.647280,67,femenino
Alcides del Ayuso,julie34@example.com,15.184817,-88.407185,2024-05-16T13:46:26.421089,20,masculino
Gisela Casals,herranzramon@example.com,16.484154,-88.409824,2023-02-26T10:10:47.838691,41,femenino
Trinidad Sánchez Olmo,fernando41@example.com,16.828646,-89.946921,2020-02-23T06:04:19.841651,51,femenino
Ceferino Gargallo Giralt,inesgabaldon@example.com,15.33194,-89.636801,2023-06-18T01:22:08.472781,33,masculino
Ainara Agullo,pcatalan@example.org,13.806245,-91.537203,2023-03-12T04:40:24.984783,51,femenino
Dani Iniesta Mayoral,teo65@example.com,17.445524,-91.81718,2021-05-03T20:51:07.722151,67,femenino
Encarna Viñas Puerta,aguileraariadna@example.net,16.586555,-91.420261,2025-02-17T22:45:57.406707,57,femenino
Mar Lumbreras Martín,tiradobernardo@example.com,16.545321,-88.205622,2025-04-01T09:16:18.191835,30,masculino
Tere Lluch Julián,godofredo28@example.org,14.256487,-91.996387,2024-10-11T08:41:13.420912,29,femenino
Graciana Nadia Montenegro Chaves,valenciamanolo@example.com,17.788776,-88.976896,2024-10-25T09:03:16.750086,38,femenino
Gala Aranda Falcó,lucila38@example.net,16.609116,-90.045012,2024-03-02T16:09:35.246054,36,femenino
Lilia Marín Domínguez,lazarocabanillas@example.com,17.190584,-89.381583,2020-09-05T04:58:25.181087,62,masculino
Primitivo España-Narváez,gironpedro@example.org,16.954155,-90.214101,2023-12-14T17:48:02.701654,25,masculino
Humberto Rufino Muñoz Peral,delfina47@example.org,16.947469,-91.329382,2022-07-01T19:47:40.774156,49,masculino
Marisa Belda-Sureda,angelitacarretero@example.net,15.179676,-89.953663,2022-01-10T10:12:15.152689,47,masculino
Hilario Amando Contreras Cervantes,octaviorecio@example.net,16.208988,-91.946517,2024-09-28T02:07:58.224494,37,femenino
Bienvenida Molina Escribano,torrentnazaret@example.net,17.79834,-89.352634,2025-03-29T01:09:44.361803,51,femenino
Melisa Barco Acuña,nllanos@example.org,16.853575,-88.924308,2023-01-22T23:04:16.344301,22,masculino
Jose Ignacio Borja Castilla,zroman@example.com,17.686757,-89.666412,2025-02-15T16:52:06.158206,46,femenino
Adela Arellano Flores,alberto58@example.org,16.488447,-90.887489,2020-02-04T18:09:36.138696,67,masculino
Matías Ibarra Gonzalo,mateo21@example.com,16.847905,-91.770965,2022-09-03T10:55:53.308658,50,masculino
Celso Anacleto Arroyo Martí,xavier89@example.net,17.108702,-90.175781,2021-10-17T09:19:34.010140,37,masculino
Francisco Javier Trillo Palomar,fidelquintanilla@example.org,14.364065,-88.467575,2021-03-19T02:58:01.285572,32,femenino
Curro Almeida Vargas,duiliopazos@example.net,17.584681,-90.172519,2023-06-16T00:37:25.550551,36,masculino
Godofredo Jaume Atienza,campoyfrancisca@example.org,14.727482,-89.696266,2020-04-03T13:47:04.064121,53,femenino
Horacio Saldaña Pinto,iriarteainoa@example.net,14.213198,-91.058419,2020-10-24T01:28:17.197998,52,masculino
Eutropio Rivero Cabrero,esther92@example.com,15.76055,-91.608593,2024-05-30T10:30:21.017174,55,masculino
José Mari Carranza Lumbreras,caminoanastasia@example.org,14.401923,-89.739635,2023-03-27T10:37:19.759768,56,femenino
Severo Zabala-Franch,juliana64@example.org,17.154373,-89.989166,2020-03-17T10:41:50.133730,70,masculino
Zaida Galiano Terrón,joel00@example.net,14.033014,-88.410958,2020-06-21T15:53:55.789752,67,femenino
Silvestre Uribe Company,vidalcarlito@example.net,16.369633,-89.155468,2023-11-04T17:06:48.885350,44,masculino
Modesto Guardia-Saura,juan-luis70@example.org,15.741956,-89.728628,2024-04-26T12:54:59.513727,36,femenino
Teodosio Manso Palomino,teodosio11@example.org,15.680074,-89.000779,2020-01-19T18:20:08.176832,61,femenino
Natanael Donaire Mulet,tere79@example.com,14.919479,-92.000811,2024-08-31T05:05:48.361020,21,masculino
Gilberto Noriega España,perezsalomon@example.com,15.502383,-90.31457,2021-06-11T08:19:28.538570,31,femenino
Nuria Tejera Robles,danielcazorla@example.net,16.187307,-91.018412,2023-11-10T05:06:08.975863,63,femenino
Baldomero Rico Tolosa,nescudero@example.com,16.710219,-88.770813,2024-02-20T13:14:49.842379,43,masculino
Albina Tere Castrillo Tomas,acarbajo@example.com,16.818726,-90.188581,2020-03-30T04:26:00.844977,24,femenino
Nacio Miralles-Alberola,haydeeneira@example.net,14.691125,-91.79766,2022-10-11T19:15:09.248235,46,masculino
Arcelia Iris Ibarra Tirado,gracia62@example.net,14.277598,-92.092518,2024-09-26T13:39:56.711639,42,femenino
Amelia Adelina Crespo Vega,kvalcarcel@example.org,14.717908,-88.752239,2023-12-28T17:57:40.811353,28,femenino
Dalila Muro Lobo,vendrelljacinto@example.net,17.528381,-89.343373,2023-06-02T00:19:25.675624,30,masculino
Salomé Gutierrez Bermúdez,zsaldana@example.net,15.742889,-90.189628,2022-05-19T07:06:02.578285,49,femenino
Itziar Molina Carrera,galeman@example.com,15.739218,-91.930799,2022-03-10T22:08:34.186375,43,femenino
Malena de Bou,tania88@example.org,17.663415,-91.417908,2023-06-23T21:26:57.539671,40,masculino
Evita Parra Ballester,rafaelasantos@example.com,13.907216,-90.270934,2022-12-22T16:09:41.525590,59,femenino
María Carmen Juana Parra Santamaria,cabanillasmartina@example.net,14.871568,-92.266473,2021-03-06T04:21:45.078973,24,femenino
Felicidad Manzanares Yuste,judith10@example.org,14.249133,-91.215661,2022-08-13T06:46:08.274920,41,femenino
Ascensión Izquierdo Ferrández,dionisiopozo@example.org,15.200343,-90.657615,2022-06-05T15:41:07.213485,54,masculino
Pepito Neira,ribasarturo@example.net,15.186347,-91.116733,2024-06-12T15:44:15.262738,42,femenino
Beatriz Sanjuan-Sebastián,andreaacosta@example.net,16.834057,-91.153145,2023-11-29T05:30:49.060412,57,masculino
Iris del Verdugo,jesusaduran@example.net,14.22752,-91.903606,2024-04-30T13:05:44.488724,41,femenino
Guillermo Montserrat Varela,mriquelme@example.net,15.987111,-90.801014,2024-01-18T23:32:07.655997,27,masculino
Heliodoro Novoa-Mariscal,icanellas@example.com,16.170098,-90.654313,2023-03-14T21:02:29.864390,20,masculino
Emperatriz Mir,herbertogallego@example.net,13.859547,-89.374273,2023-10-17T21:09:18.030839,69,femenino
Águeda Cazorla Enríquez,leocadia15@example.net,15.829264,-91.689343,2022-07-20T21:37:39.173498,50,masculino
Natividad Rincón-Macias,halberto@example.org,15.04466,-89.786421,2020-02-19T00:39:00.220794,28,femenino
Amando Barbero Folch,maricela24@example.net,17.761525,-89.268791,2021-05-01T01:54:50.161041,37,femenino
Onofre Marquez Frías,palmerodalys@example.com,15.779991,-90.210172,2020-07-17T19:23:04.581687,49,femenino
Teresa de Porcel,ariadnamaestre@example.net,15.64706,-92.231788,2023-07-13T02:16:21.776142,39,masculino
Gala Riera Milla,albertomar@example.com,17.717582,-89.906821,2021-01-28T23:34:25.162124,68,masculino
Saturnina Gomis Pedro,mauraferrer@example.com,16.147329,-91.211325,2022-05-20T16:27:09.950810,59,masculino
Ciro Durán Vilaplana,piapolinar@example.com,16.65774,-89.907555,2021-06-25T11:14:09.872218,28,femenino
Berto Cuevas-Jara,murilloadelaida@example.net,14.30588,-89.50902,2024-12-23T16:58:07.326593,20,masculino
Carmelo Mora Azcona,amor98@example.com,14.482216,-90.491742,2020-05-21T09:16:11.104816,44,masculino
Lucila Gimeno Espejo,vazquezfeliciano@example.com,15.393136,-91.464044,2022-11-19T13:21:51.412377,50,femenino
Araceli Olmedo Giralt,graciamarmol@example.com,17.278553,-89.283067,2021-11-30T22:26:57.330725,21,masculino
Renato Taboada,carboguiomar@example.com,15.826601,-90.000364,2022-05-14T13:53:58.412868,60,femenino
Ágata María Ángeles Hervás Ariño,rico16@example.com,15.854456,-91.013614,2022-11-14T01:00:14.021836,29,femenino
Albano Xavier Villanueva Perera,ctorrecilla@example.com,17.439709,-90.896459,2024-10-08T15:15:04.058548,40,femenino
Felipe Vilaplana,baezflorencio@example.net,16.201314,-91.511717,2022-10-31T09:37:24.533094,33,femenino
Cruz Garcés Rodrigo,fusterbrigida@example.net,15.988155,-91.378045,2024-08-31T12:37:30.434872,37,femenino
Miriam Bello Corral,segovialiliana@example.com,16.590094,-89.470016,2020-03-14T11:57:20.085908,49,femenino
Amando Enríquez Infante,gonivisitacion@example.com,15.667194,-90.002001,2022-03-01T19:02:45.946264,68,femenino
Mayte Quiroga Roselló,ale61@example.net,14.879936,-89.948745,2020-01-12T10:38:57.117249,52,femenino
Ana Belén Prudencia Arroyo Belmonte,ingrid81@example.com,17.372618,-90.682417,2024-03-06T13:02:16.823457,40,masculino
Marcio Armando Lucena Río,qprats@example.org,14.890856,-91.120716,2022-07-08T12:28:31.734280,63,masculino
Constanza de Portillo,fabiana24@example.net,15.12009,-90.486258,2024-09-16T16:58:11.838595,34,femenino
Adelina Cid Casal,adadiaconstanza@example.net,14.577346,-88.905398,2022-02-03T12:07:08.738544,35,femenino
Anselma del Gallo,hector68@example.org,14.262819,-89.775724,2020-11-08T05:54:07.884980,55,masculino
Mario del Ferrera,escuderohilda@example.net,14.694078,-89.553681,2024-07-11T08:06:35.550526,51,masculino
Joaquina de Manso,iglesiaclimaco@example.org,16.315573,-92.084786,2023-11-08T14:50:15.408403,44,femenino
Eusebia Palau Castellanos,corneliolopez@example.net,16.641168,-91.887766,2020-05-15T10:14:38.826942,67,masculino
Federico Torre,nmoya@example.net,13.721244,-90.043554,2021-08-15T23:59:55.587544,28,femenino
Calista Pastor-Molina,adomingo@example.com,16.37686,-88.689345,2021-04-22T13:42:41.374629,48,femenino
Pelayo del Lloret,eloy57@example.com,16.367209,-89.200765,2022-05-13T23:30:00.274809,36,femenino
Jose Francisco Leoncio Camps Echevarría,lozanorosa-maria@example.org,14.870203,-92.057433,2024-09-25T02:03:19.108061,67,masculino
Eleuterio Benito,alfonsoreina@example.net,16.374425,-91.347897,2023-05-10T08:00:31.828182,65,masculino
Marina Quirós-Garcia,juliacandelaria@example.net,17.444242,-91.582234,2022-07-04T20:46:14.609905,29,masculino
Gervasio Poza Godoy,eloy78@example.net,17.788404,-90.672322,2020-06-24T16:07:14.565210,49,masculino
Lidia Alarcón Haro,maritavilaplana@example.org,17.540096,-88.355261,2022-05-15T15:39:21.532241,36,masculino
Lorenzo Coll Tomás,apolinar37@example.org,13.737995,-89.971356,2020-05-01T22:45:49.859553,24,femenino
Cruz Arnau Gabaldón,roman77@example.org,14.866703,-88.244692,2020-03-18T09:55:47.520861,52,femenino
Aroa Vázquez Llanos,cristina89@example.org,17.345966,-91.74978,2021-12-31T16:57:32.483112,50,femenino
Flavia Bermejo Villanueva,renato38@example.com,14.818632,-88.983863,2021-11-15T14:38:25.067367,39,masculino
Lara Toledo Agudo,valeriodaza@example.org,16.697589,-89.64203,2020-05-29T13:09:51.247991,63,masculino
Curro Conesa-Estévez,porfiriocarrasco@example.net,13.757745,-90.91784,2021-03-22T20:44:07.217053,36,masculino
Pacífica Carballo Tirado,ntello@example.net,14.419529,-88.789799,2020-11-08T19:29:34.514235,43,femenino
Ainoa Hervás Aroca,consuelacuevas@example.org,15.812651,-91.944375,2023-05-06T06:52:59.382072,60,masculino
Victor Manuel Collado Barba,juanescolano@example.net,14.457603,-91.723491,2025-02-01T22:47:12.956812,38,masculino
Marcela Merche Alfonso Luque,gasconvidal@example.net,13.728003,-90.727345,2025-04-09T22:49:25.907992,46,femenino
Carlota Gimenez Reig,narcisaespada@example.net,17.611543,-91.062022,2023-07-03T16:42:07.052207,64,masculino
Celso Noriega-Santana,grasreyes@example.com,14.772368,-90.825836,2020-09-13T11:44:15.063869,33,masculino
Cosme Yáñez Varela,mconde@example.org,16.437923,-90.391881,2020-12-10T04:37:50.257490,28,femenino
María Carmen Alma Vaquero Carpio,toledogeorgina@example.org,16.512902,-88.515265,2024-10-15T19:39:59.724135,63,femenino
Sarita de Rosado,cpellicer@example.net,16.530191,-89.681284,2022-10-24T19:49:13.143169,36,femenino
Salvador del Piquer,dolores91@example.com,16.219964,-91.401573,2020-09-16T17:29:13.267316,26,femenino
Raquel Guerrero Blanes,elba86@example.com,14.328061,-89.234287,2021-01-01T16:39:45.220966,56,femenino
Luis Yáñez Carranza,perezfatima@example.org,15.404967,-90.048139,2023-08-27T05:51:08.060069,48,masculino
Guadalupe Paredes Campillo,teodosioizaguirre@example.com,16.823624,-89.510598,2024-07-16T15:01:14.901808,56,masculino
Marcia Pavón Llorens,afrias@example.net,15.854577,-90.13449,2024-02-29T12:32:33.013739,41,masculino
Carmina Pellicer Tomás,marino95@example.net,17.460703,-91.839944,2022-02-11T08:35:34.828584,53,masculino
Teófilo Carrera Gras,gcaceres@example.org,16.048077,-91.685605,2022-09-13T04:03:22.559372,38,femenino
Rosario Azorin Cuevas,zadadia@example.org,14.176584,-91.457854,2024-05-16T02:05:44.685944,55,femenino
Ángeles Rozas Borja,jodarivan@example.com,14.072861,-90.207461,2020-06-04T06:35:02.948065,69,masculino
Porfirio Planas Pérez,leonor90@example.org,15.559072,-90.195684,2023-05-27T03:26:08.591662,47,masculino
Adelina Franch Villegas,guiomar09@example.net,15.991069,-89.541652,2022-09-27T15:51:26.731500,37,masculino
Marino de Araujo,jorge02@example.org,15.32339,-88.952542,2025-04-17T18:59:03.826458,65,masculino
Feliciana Prats Ramirez,auraalcantara@example.net,16.071076,-92.114312,2023-09-27T00:03:24.136180,40,masculino
Leonardo Luís Oliveras,olalla43@example.net,15.91877,-92.052952,2025-02-11T07:08:47.136666,22,femenino
Íngrid Quintero Acuña,gabino68@example.org,13.830113,-90.623646,2022-12-19T17:23:07.552405,67,masculino
Emilia Nieto,vilanovajose-angel@example.net,16.839893,-88.288834,2024-04-26T11:28:12.730289,59,femenino
Dionisia Salas-Pi,whervia@example.com,15.23529,-88.645532,2025-02-07T18:28:57.223619,46,femenino
Nieves Serna Amorós,qcarnero@example.org,15.240147,-89.500806,2022-01-12T08:57:03.013801,60,masculino
Nilo de Moles,hosuna@example.net,16.37949,-90.874143,2020-01-19T20:42:13.643972,29,femenino
Edelmiro Madrigal-Buendía,enogues@example.net,15.868254,-89.315782,2024-12-11T21:02:27.752254,32,masculino
Estefanía Otero Gil,gervasio37@example.net,16.800336,-88.288188,2021-01-22T08:18:34.006544,47,femenino
Tristán del Gabaldón,hermenegildoiborra@example.net,15.880928,-88.924222,2021-11-21T16:20:27.521129,33,femenino
Benito Bermudez Ugarte,arnalregina@example.com,15.119255,-91.169836,2021-12-21T02:36:16.763552,64,masculino
Leire Llobet Tudela,maria-cristinavicente@example.com,13.832091,-89.593189,2022-02-10T20:56:29.008879,57,masculino
Belen Balaguer-Zaragoza,itejera@example.org,14.686732,-92.024107,2022-09-01T18:49:53.808557,56,masculino
Teodora Díaz Sebastián,villegasedgar@example.com,15.530408,-89.544703,2023-08-30T01:04:29.814272,21,masculino
Nicolás Galvez Pino,morellporfirio@example.net,16.736218,-90.650712,2024-07-29T22:39:14.627145,32,masculino
Leocadio Jódar Gálvez,adriana95@example.com,16.792981,-89.118139,2020-12-22T18:52:08.558315,26,femenino
Clementina Rius Perales,ricarda64@example.com,14.660062,-88.542772,2020-12-14T23:29:39.051073,54,femenino
Lucio Granados Cabo,nilda38@example.com,16.067647,-89.132593,2024-07-19T05:01:44.029125,70,femenino
Camilo Conde,lagusti@example.com,14.671307,-88.707341,2022-08-27T04:51:46.415216,60,masculino
Luna Moles,qmarin@example.net,15.395597,-91.171869,2024-07-23T11:08:40.256330,53,masculino
Heliodoro Cabeza Cárdenas,garrigaodalys@example.com,16.266572,-90.548478,2022-07-13T11:16:57.783196,49,masculino
Jafet Nadal Juan,placido88@example.com,17.68639,-88.439496,2021-10-29T14:53:15.170882,60,femenino
Azucena Ortega Flor,mercedesluis@example.com,16.921799,-90.993189,2021-09-22T15:56:08.624352,44,femenino
Lara Salvador,piquerencarna@example.com,14.311792,-90.756513,2022-06-18T15:54:52.348537,66,femenino
Toño Diez Navas,equiroga@example.org,14.68797,-91.376087,2020-11-10T06:33:45.524855,63,masculino
Faustino del Manuel,elodia64@example.com,17.003682,-88.549561,2024-02-24T01:30:26.241961,53,femenino
Piedad Viñas Sanjuan,ldiego@example.org,17.667923,-90.015124,2020-08-30T13:45:18.558800,26,femenino
Natalio del Bernal,flaviopuerta@example.org,14.69572,-91.466319,2020-07-04T08:54:08.557546,59,masculino
Maite Balaguer Amo,wzamora@example.org,17.481127,-88.826753,2020-07-20T14:49:14.908990,23,masculino
Calixta Anselma Porta Mendoza,jose-miguelluz@example.com,13.9113,-90.753611,2023-04-30T08:25:27.039631,56,masculino
Juan José Donaire Andrade,palaciosrosalinda@example.com,17.281844,-91.52853,2024-08-03T14:21:18.130805,66,masculino
Tomasa Lladó Salgado,joseelorza@example.net,15.665516,-88.735157,2023-03-05T07:01:39.442287,39,femenino
Irma Zabaleta-Menendez,alma83@example.org,17.623781,-92.237132,2022-05-07T04:39:05.538129,30,masculino
Haydée Juan Cortés,agustin08@example.org,16.762205,-89.207244,2021-10-29T02:59:53.639341,33,masculino
Luna Aguirre Téllez,amari@example.com,15.326191,-91.318743,2024-03-28T00:34:55.577237,38,femenino
Cristina Rosalinda Aguilar Pereira,sergioruiz@example.com,15.260713,-90.112034,2021-04-29T18:57:25.984658,40,femenino
Saturnina Pineda Giménez,cebrian63@example.net,14.772403,-90.197452,2024-01-23T04:16:21.550289,49,femenino
Roxana Nélida Llabrés López,seve31@example.org,14.104294,-88.276594,2020-09-22T01:06:08.402883,48,femenino
Melchor Sarabia Santamaría,juanita97@example.org,17.448755,-90.78011,2021-09-14T00:54:26.629866,44,masculino
Amador Alonso Estevez,lujanjulio-cesar@example.org,16.006351,-91.392776,2023-10-19T10:56:00.348129,27,masculino
Demetrio Bosch Contreras,uriarteisaac@example.com,14.769174,-88.467491,2022-03-26T06:10:07.957047,55,femenino
Florencia Silva Angulo,cecilio20@example.com,14.910288,-91.495614,2024-02-13T17:45:36.144151,32,femenino
Lalo Soriano Escudero,teresitaibanez@example.com,16.036137,-91.292507,2024-05-25T18:43:56.923972,53,femenino
Rodrigo Ibarra Plaza,vhuertas@example.org,14.75504,-88.931473,2021-01-21T09:39:02.980687,64,femenino
Juan Bautista Galindo Suárez,umiguel@example.org,15.589399,-89.295634,2023-05-05T13:22:08.260865,40,masculino
Ramón Viñas Carvajal,alicia43@example.com,14.27383,-90.05916,2024-09-17T18:10:47.100013,29,masculino
Basilio Guzman,amorata@example.org,15.848172,-88.859819,2024-03-21T02:09:43.089977,22,masculino
Azeneth Priego-Herrero,arnalcandida@example.net,16.833789,-90.609192,2022-07-11T00:12:39.487938,58,masculino
Calixta Florencia Borrás Ibarra,angelinabravo@example.net,13.978669,-91.680778,2023-04-15T03:35:40.453994,31,femenino
Amor Pagès Correa,casasamarilis@example.org,15.230123,-89.766876,2021-09-06T11:07:57.844544,60,femenino
Rocío del Ródenas,alfonsopina@example.com,16.403066,-92.2355,2023-11-06T07:25:39.229221,52,femenino
Vinicio Ariza-Toro,imarino@example.net,13.748589,-90.129388,2022-08-08T18:16:45.378109,35,femenino
Cayetana Oliveras-Morales,mllopis@example.net,13.770285,-88.966055,2020-11-07T01:27:24.960093,61,femenino
Calixta Sancho,oriana48@example.com,17.005288,-88.569929,2022-05-30T21:32:34.571003,24,masculino
Fortunata Esteve,pascualmaura@example.net,15.84998,-91.312028,2021-04-08T05:42:19.023432,57,femenino
Narciso Ponce Falcó,ncorrea@example.com,17.042379,-91.203969,2021-09-17T19:59:30.813104,43,masculino
Aura Bárcena Zabala,arranzpetrona@example.org,15.229511,-90.635288,2020-12-12T13:16:30.906894,54,masculino
Cosme Campo Torralba,conradoanton@example.net,17.759955,-91.373985,2023-05-29T23:25:42.885929,61,masculino
Máxima Trillo Zaragoza,augusto53@example.net,16.380316,-88.781301,2023-10-24T14:16:49.568471,66,masculino
Édgar Gallardo Tur,solenicolasa@example.net,14.083352,-90.745018,2020-04-27T18:09:02.601596,53,femenino
Perlita del Peinado,larranagabenigna@example.org,13.930071,-92.261254,2023-11-25T12:25:06.093759,28,masculino
Antonio Cándido Vives Caballero,guardiabernardita@example.com,15.749419,-90.52097,2021-01-02T13:07:14.284782,68,femenino
Máxima Ibarra,celestinaribes@example.net,16.020012,-88.782363,2020-07-23T16:39:11.947117,24,masculino
Felisa Segarra-Roldán,diazmonica@example.org,14.642043,-88.604781,2022-12-02T21:56:19.347182,62,femenino
Evangelina Cruz,uortuno@example.net,14.81149,-88.510947,2025-04-07T09:41:57.973292,61,femenino
Sonia Peral Revilla,mmorales@example.org,17.387178,-89.98961,2022-12-28T11:33:11.091765,20,masculino
Godofredo Izquierdo,victor76@example.org,17.507942,-91.010613,2023-11-10T00:32:50.763973,31,masculino
Marc Adán Villaverde Cepeda,adolfo43@example.org,16.784243,-89.377883,2024-07-18T01:38:15.063761,43,masculino
Rolando Llorente Vidal,ciriacoarellano@example.com,14.927035,-89.987771,2021-11-20T23:02:19.156425,54,femenino
Eligio Pedraza Iborra,jose-mariamas@example.org,16.475843,-90.083694,2023-01-11T17:24:42.519033,42,masculino
África Gelabert-Berenguer,monica72@example.com,16.941042,-89.473827,2024-05-20T20:09:19.549652,23,femenino
Salud Bustos-Mas,pizarrocayetano@example.org,13.920155,-90.507938,2024-11-23T09:34:36.646129,22,femenino
Febe Rovira Riera,gonzalezmariana@example.net,16.181192,-89.783153,2024-07-05T23:00:11.241069,56,femenino
Maximiliano Piñeiro Balaguer,azucena05@example.net,17.672574,-90.961856,2022-12-31T21:52:42.977980,58,femenino
Lidia Giner Coronado,pozovictor-manuel@example.net,16.912547,-90.452744,2023-01-20T23:23:30.226528,32,femenino
Dan Rosales Manjón,icolomer@example.com,15.967455,-90.760749,2020-06-09T03:13:56.606134,29,femenino
Petrona Avilés-Pujol,che68@example.com,14.051346,-89.763675,2024-02-10T04:39:37.376008,69,masculino
Rico Cepeda Terrón,amarilisprats@example.net,16.623745,-91.963644,2023-01-13T08:41:08.036215,27,femenino
María Manuela de Herrera,larreamaxi@example.com,16.617876,-89.701006,2021-09-19T09:46:45.758289,65,femenino
Anunciación Capdevila-Riba,wpavon@example.org,14.998381,-91.863141,2021-09-14T05:18:49.476452,18,femenino
Morena Aitana Mayol Dominguez,encarnita79@example.org,15.523417,-89.178479,2022-05-04T11:36:49.992352,24,masculino
Cornelio del Costa,capdevilamanola@example.org,14.057919,-90.532984,2021-04-16T12:07:44.144718,53,femenino
Ángeles Brunilda Maestre Alcalá,joaquina14@example.com,14.123501,-91.932563,2022-07-03T02:13:55.457783,53,masculino
Clementina Galán Frías,carlota79@example.net,16.147391,-89.083801,2025-04-09T00:46:08.373622,42,masculino
Godofredo Zurita Arranz,francisco04@example.org,14.896574,-90.710022,2024-03-10T23:57:56.383904,23,masculino
Elba Amelia Sola Aguirre,pontgertrudis@example.com,16.045038,-91.60471,2023-07-10T03:52:42.123375,42,masculino
Teresa Campos Aliaga,rufina63@example.com,14.269244,-91.065362,2022-09-13T13:13:06.964792,49,masculino
Vito Moles Tormo,estradaheliodoro@example.net,13.959395,-90.517827,2025-02-18T13:00:33.244970,44,femenino
Ángeles de Ariño,agataavila@example.com,15.685348,-91.984622,2021-10-09T02:43:37.843596,34,masculino
Petrona Crespo Alfaro,isaura55@example.net,16.655688,-90.26721,2021-08-09T12:03:32.979856,57,masculino
Eliana Barrio,selena60@example.net,15.577233,-91.744493,2025-01-15T06:04:40.602821,18,femenino
Carlos del Pozo,chuchopina@example.net,15.062091,-89.757212,2025-02-06T13:00:32.834707,69,femenino
Trini Maura Gordillo Rincón,constanzacorominas@example.com,15.504914,-90.534473,2025-02-25T19:24:38.251198,70,masculino
Eulalia Jacinta Catalá Gabaldón,custodiafrancisco@example.org,14.931785,-89.826834,2021-08-22T10:42:38.063881,62,masculino
Yéssica Cepeda,pcodina@example.net,15.66394,-91.571687,2024-11-14T03:59:03.230021,43,femenino
Anabel Carrasco Espinosa,primitiva20@example.com,14.894937,-89.450673,2024-09-03T10:12:56.337120,49,masculino
Guiomar Mateos Salazar,evaristo31@example.org,15.036134,-91.150769,2020-12-24T09:38:40.442241,68,femenino
María Manuela Débora Gual Guerra,jacintaamo@example.com,15.196564,-88.478525,2020-06-03T04:18:37.843902,30,masculino
Benita Vallés Somoza,geronimo67@example.com,16.495022,-90.044593,2020-09-23T18:28:44.330252,64,femenino
Daniel Antúnez,ralcolea@example.com,17.566197,-91.440442,2021-03-07T17:56:26.321251,69,femenino
Reyes Fuente,elorzaaurea@example.com,17.108255,-92.016449,2024-08-09T04:48:41.267392,68,femenino
Noemí Morcillo Seco,teofiloquiros@example.org,16.459208,-91.729366,2023-03-25T08:43:03.490821,37,masculino
Pacífica Milla Prado,vinascesar@example.com,14.735995,-91.668013,2022-06-05T08:54:25.383098,45,femenino
Valentín Hoyos Villena,jariza@example.com,14.003257,-88.238127,2022-09-28T06:25:58.249622,48,femenino
Claudio Manuel Sabater,xmayo@example.com,15.890906,-88.513667,2022-06-13T23:56:36.956601,62,femenino
Emilia Ballester Villanueva,abigailsans@example.org,15.928945,-89.058044,2023-11-02T21:50:19.787186,41,masculino
Cipriano Cerdá Pozuelo,cmorales@example.org,14.148415,-91.282253,2020-12-13T00:26:20.976591,60,femenino
Viviana Franch-Sanz,ibanezmoises@example.net,14.381988,-89.788021,2023-06-12T05:11:01.963755,54,femenino
Plinio Casals Bou,sanchofabiana@example.com,17.663926,-90.940454,2020-06-14T11:48:08.495033,68,femenino
Pascuala Vidal Cuesta,cpintor@example.org,14.134373,-91.895713,2024-11-04T17:44:14.208803,32,masculino
Trini Conesa-Cámara,gastonaznar@example.com,15.527692,-90.69635,2021-08-20T15:07:20.314255,67,masculino
Elvira Escrivá Carpio,hermenegildoacevedo@example.net,15.114366,-92.199293,2024-01-24T20:11:51.912392,24,femenino
Jenaro Valenciano Valenzuela,uriartejordan@example.org,15.405499,-88.356916,2023-02-16T08:56:40.089938,25,masculino
Jenny Redondo Sala,agudojose-ignacio@example.net,15.128147,-90.893427,2021-06-23T12:42:32.719164,68,masculino
Salud de Avilés,eusebioballesteros@example.net,15.836571,-90.871969,2021-11-08T02:04:32.467887,24,femenino
Teófilo Antúnez Martín,zoraida10@example.org,16.660175,-90.444967,2022-03-19T21:10:14.220790,22,femenino
Cecilio Luís Elías,cpalomino@example.org,13.883201,-89.385806,2024-01-30T21:17:03.599287,19,femenino
Flor Pinilla Bauzà,sbaron@example.com,16.356677,-89.523729,2020-09-18T00:20:27.650205,28,masculino
Fidel Águila-Riba,josefagallart@example.net,15.815575,-90.037168,2020-04-22T21:01:35.089623,39,femenino
Pastora Ángel-Bonilla,bmadrigal@example.net,17.629697,-91.349392,2024-07-02T16:46:28.250264,43,masculino
Juan José Otero-Castilla,uvizcaino@example.net,14.464186,-89.605038,2022-08-23T14:24:57.317595,43,masculino
Vasco Guerrero Manrique,abelcarrasco@example.org,16.723292,-88.679301,2022-06-20T20:41:30.710599,46,femenino
Rafa Galan Ribera,varroyo@example.com,15.294227,-89.410584,2022-12-23T04:29:01.959088,31,femenino
Adelardo Fortuny,jose-manuel14@example.com,16.784535,-88.984208,2022-09-09T23:03:04.680511,22,masculino
Raquel Aguado Carbonell,nestor69@example.net,16.97796,-90.098755,2025-02-05T14:03:41.702740,41,femenino
Cleto Murillo Neira,zsanchez@example.org,14.508005,-91.832785,2023-06-06T13:02:06.323123,60,femenino
Calixta Serna Naranjo,vriba@example.org,15.863632,-89.679655,2024-06-08T01:50:04.445789,56,femenino
Lorenzo Primitivo Moles Alfonso,crescenciamarmol@example.com,16.206365,-89.893281,2020-05-08T10:49:28.613178,40,femenino
Enrique Anguita Nicolau,kdaza@example.net,17.166623,-89.768813,2022-01-25T17:53:04.332191,70,femenino
Azahar Teresa Mendez Miranda,llabresseveriano@example.org,17.466599,-89.88031,2022-08-22T06:26:40.818274,61,masculino
Gilberto del Mate,beatrizmate@example.org,14.984062,-91.321852,2020-08-05T17:23:43.829876,25,masculino
Roque Franch Bru,bvelasco@example.com,15.230555,-91.72043,2024-10-21T13:59:45.568426,42,femenino
Claudio Nieto Tomás,maura52@example.org,16.145346,-89.943295,2024-05-13T22:05:29.719755,45,masculino
Nicolasa Cazorla,lourdesarce@example.com,15.695348,-90.096745,2022-01-21T21:47:16.004505,59,masculino
Azahar Acosta,arsenio91@example.com,15.975142,-90.292468,2022-06-24T17:21:25.582872,26,masculino
Aurelio Viñas Miguel,miguelfeliciana@example.org,14.989778,-90.450896,2021-09-14T11:55:31.699202,21,femenino
Eric Lloret,maria-teresa71@example.com,17.602552,-90.313103,2020-10-16T16:14:59.088892,30,femenino
Baudelio Alcántara-Vilaplana,gabaldoncandela@example.com,17.651699,-90.227704,2022-12-01T18:00:43.439845,49,femenino
Calisto Luque-Hierro,calistomerino@example.net,16.507256,-90.595915,2024-09-26T22:06:12.062656,46,femenino
Isidora de Castillo,sotelovanesa@example.net,14.385739,-89.981869,2020-04-07T21:11:24.918355,68,masculino
Amelia Boix Roldan,tescamilla@example.net,14.897569,-91.173103,2024-09-25T01:04:15.040391,52,femenino
María Manuela Pagès Miguel,olimpia38@example.org,14.389657,-90.424982,2025-03-03T21:49:33.601863,65,femenino
Margarita Catalá Buendía,dcabanillas@example.com,15.953877,-91.835835,2023-08-20T20:43:48.694348,25,femenino
José Guardiola Goicoechea,rosalindajorda@example.com,16.877963,-88.92454,2022-01-30T14:46:41.063327,41,masculino
Rocío Morcillo Santana,eandres@example.com,16.816017,-90.490397,2020-08-06T23:55:41.947647,31,femenino
Joaquina Donaire Lumbreras,elisabet92@example.net,14.119907,-88.89671,2020-07-18T16:26:19.860345,66,masculino
Fermín Belda Matas,lperez@example.com,14.920607,-88.202818,2021-04-07T19:52:08.017062,46,femenino
Leocadio de Toledo,vbatalla@example.org,15.129166,-88.951413,2024-04-27T23:14:39.089287,46,masculino
Irene Rozas-Nogués,fulgenciobermejo@example.net,16.88009,-91.328521,2024-12-10T20:13:33.231196,69,femenino
Socorro Torrecilla-Carbó,jmorell@example.org,17.2303,-89.797927,2024-05-13T16:42:56.172252,45,masculino
Fabio Ramis Baños,pinillanacio@example.com,16.22622,-89.082118,2023-06-05T06:09:41.247243,70,masculino
Artemio Gelabert Chamorro,colladogertrudis@example.org,17.002306,-89.962695,2022-05-28T18:06:56.000520,52,femenino
Guiomar Mario Salvador Ferrán,isamoliner@example.com,16.147117,-91.609653,2023-01-11T07:35:57.798704,63,femenino
Ángel Isaac Ocaña Borrell,vicenssancho@example.org,14.886266,-91.203893,2024-07-11T19:56:17.923535,50,masculino
Gil Baena Abascal,damian40@example.org,14.255915,-89.224614,2022-04-17T12:19:04.103516,44,masculino
Georgina Monreal-Piñeiro,bpizarro@example.net,17.769194,-88.745105,2021-02-13T18:02:46.686576,26,masculino
Jordán Chamorro Fabra,apalomino@example.org,14.723677,-89.383281,2021-07-13T14:57:57.453944,33,femenino
Bonifacio Alberdi Bellido,cobolorena@example.com,15.706781,-89.932555,2023-06-30T08:31:28.486508,35,femenino
Aristides Cervantes Ricart,nroig@example.org,15.238207,-91.990383,2022-05-31T12:13:36.271176,68,masculino
Mamen Sandoval Planas,jaime26@example.net,15.351688,-89.22581,2020-01-15T09:56:03.402736,62,femenino
Soraya Guzmán Valls,segismundo89@example.com,15.564252,-90.299018,2020-03-05T21:57:26.501379,55,masculino
Loreto Tomas Pedrosa,tiradojessica@example.org,17.262522,-88.826614,2020-10-02T15:28:33.316229,23,femenino
Tecla Losa,fvillanueva@example.net,16.302846,-89.441115,2024-09-22T09:43:51.542356,22,femenino
Donato Sureda Bermejo,emperatriz05@example.net,14.593103,-90.538463,2024-02-19T07:34:53.297820,31,femenino
Jenny Vila Somoza,tadeo54@example.com,14.801001,-88.903791,2020-11-20T23:02:31.055224,39,masculino
Pilar Encarnacion Juliá Barriga,kdominguez@example.org,16.021183,-90.310115,2023-06-27T05:42:46.117077,39,masculino
Sandalio Rafa Amores Madrid,iblanca@example.net,13.888366,-89.732664,2020-05-29T02:38:36.376662,47,masculino
Edmundo Cazorla-Lucas,rosa40@example.net,14.209372,-88.783628,2020-08-04T09:38:53.871171,46,femenino
Wálter Corbacho Salom,nuria24@example.net,13.702771,-88.37207,2021-04-03T05:05:07.728027,30,masculino
Salomón Álamo Aparicio,cesar29@example.org,17.316806,-91.062351,2024-06-12T22:37:38.994398,35,masculino
Regina Piñol Gárate,ndiego@example.net,16.383811,-91.273404,2023-11-25T15:14:52.387430,41,masculino
Amelia Lamas Carmona,diezabril@example.com,13.912328,-89.735022,2022-07-12T20:57:59.790189,64,masculino
Piedad Guillen Pino,qsanchez@example.org,15.459847,-91.926083,2022-10-26T00:56:54.142174,24,masculino
Adora Malo Sanchez,hmoles@example.net,14.575027,-91.980451,2025-01-28T08:33:14.250905,55,masculino
Álvaro Otero Rosales,nico44@example.org,15.829721,-90.475226,2021-05-10T08:36:08.450801,18,femenino
Genoveva Serra-Herranz,auroranebot@example.net,17.050147,-88.248565,2023-09-01T02:47:23.631597,45,masculino
Faustino Alarcón Aguirre,alberosergio@example.org,15.658571,-91.361318,2022-10-15T23:52:15.878094,23,masculino
Felicia Gimenez Luque,guadalupe00@example.net,14.123126,-90.792997,2020-06-27T08:42:37.138689,37,masculino
Máxima Virginia Gaya Carro,boixroberta@example.net,15.269156,-88.965192,2020-09-09T00:22:28.588560,26,masculino
Rosaura Esteban-Cantero,jose-luismarino@example.com,13.980488,-89.990506,2023-07-05T07:18:14.401488,57,masculino
Miguel Santana Lloret,qmorales@example.org,15.504408,-89.338029,2024-02-23T14:12:20.132416,58,masculino
Román Barrios-Piñeiro,dmendez@example.com,17.471566,-89.774088,2025-01-27T20:12:48.642296,46,masculino
Chuy Saez-Baños,nfonseca@example.com,14.055421,-91.888093,2020-12-12T04:07:13.161216,66,masculino
Asunción Cobo Rosado,encarnacamino@example.com,16.117253,-90.725469,2023-10-19T20:26:56.351982,45,femenino
Ale Beltran Bejarano,maxi70@example.com,16.943414,-91.284076,2020-10-15T18:31:56.432939,59,masculino
Alejo Portero Larrea,juanamurcia@example.com,14.717485,-89.835904,2023-01-19T18:46:34.900653,64,femenino
Olga Trujillo,zrubio@example.net,16.893776,-89.469048,2024-02-23T23:47:04.566527,60,femenino
Julián Gonzalez Acero,htoledo@example.net,14.542327,-89.8116,2022-11-04T11:18:59.301720,30,femenino
Eva Mateo Pérez,botellapio@example.net,14.911722,-92.076267,2024-07-13T10:54:13.082916,68,masculino
Anita Segura Manjón,gabrielariza@example.com,15.72904,-91.837751,2023-07-05T19:14:03.944695,49,masculino
Pablo Guiomar Campillo Palomar,oblazquez@example.com,15.865975,-88.291443,2023-11-27T12:05:15.820234,41,femenino
Alejandro Ferrando Amaya,amayaporcel@example.org,14.24113,-88.770663,2024-03-17T21:16:56.176754,54,femenino
Josep Juanito Sancho Alegre,nicolaubasilio@example.com,15.198191,-89.499938,2024-03-08T06:19:08.279038,66,femenino
Hermenegildo Carrasco Galán,vcompany@example.net,17.613257,-89.141495,2021-03-27T23:37:12.863935,19,masculino
Alejandro Cid Torrijos,sotovictoria@example.net,13.756553,-91.415454,2020-03-29T20:29:20.721467,21,femenino
Adrián Dueñas Ayllón,otilia17@example.net,15.777103,-89.72286,2020-11-27T03:09:25.833275,50,femenino
Ana Belén Camino-Carbonell,egimenez@example.org,15.436658,-90.650663,2022-04-06T20:03:15.743845,58,masculino
Eufemia Carrillo Cervantes,piedad30@example.net,14.837618,-91.029382,2020-12-02T11:34:46.291937,50,masculino
Benito Llanos Cid,sdieguez@example.com,17.694685,-91.662954,2022-12-09T14:12:27.541014,38,femenino
Daniela Armas Cañellas,penalvermayte@example.org,16.104392,-89.170781,2020-01-31T07:44:06.376975,59,masculino
Anita Agudo Aguilar,angelesborrell@example.net,14.971695,-90.506307,2023-06-18T09:12:44.396517,33,masculino
Horacio Ovidio Tamarit Castañeda,ericlillo@example.net,14.702367,-88.509026,2022-05-23T19:08:36.219560,25,femenino
Chucho de Escolano,oborja@example.com,16.210417,-92.074383,2021-11-05T19:46:31.031097,60,masculino
León Gutiérrez Fernandez,bustosesperanza@example.com,14.189716,-89.397608,2024-07-31T16:02:48.783279,62,masculino
Lilia de Simó,leonelbaena@example.org,14.371714,-88.392634,2020-08-06T14:14:49.342383,51,femenino
Octavio Sánchez Valencia,felicianoaroca@example.org,14.384548,-91.779585,2023-06-05T00:11:20.040035,67,femenino
Cruz Isaac Iglesias Múñiz,garoca@example.net,16.705037,-91.815967,2020-04-11T18:20:06.345487,19,femenino
Carmen de Andres,hvilla@example.org,17.009142,-91.18488,2024-10-02T10:08:54.385181,22,femenino
Martina Moreno Rius,marianamoreno@example.org,16.620525,-89.935728,2024-02-20T04:26:48.359476,22,femenino
Corona Cabañas Gálvez,yfolch@example.org,15.566311,-90.823492,2020-05-22T15:28:58.702032,49,masculino
Julieta Ballester-Ruano,inocenciosanz@example.org,15.20752,-91.254024,2022-01-21T09:46:46.620259,24,masculino
Jenaro Ferrera Palmer,hermenegildo52@example.org,14.636458,-90.213818,2023-09-04T20:45:05.633692,20,masculino
Enrique Cerezo Cantero,asegarra@example.org,14.702661,-90.365765,2024-01-15T00:47:02.862301,42,masculino
Venceslás del Crespo,crescenciagras@example.org,14.43374,-88.362597,2022-03-09T16:13:58.687472,20,femenino
Laura Gascón,rsevillano@example.org,14.620513,-91.282121,2023-11-17T05:01:29.269877,64,femenino
Duilio del Rovira,teclacompany@example.net,14.812158,-91.980663,2024-10-08T13:51:46.744821,41,masculino
Amada Arjona Sosa,roigbernarda@example.com,15.758368,-88.602042,2022-07-18T18:23:07.090735,29,masculino
Jaime Valbuena Hernandez,alberolajimena@example.net,16.997786,-88.276203,2022-02-27T19:48:09.365478,43,masculino
Blas Palmer,jorge10@example.com,17.295664,-88.749268,2023-07-21T21:44:46.832759,67,femenino
Pastor Segovia Amador,xsilva@example.org,15.041934,-90.032325,2024-08-22T21:59:11.334396,18,femenino
Catalina Pellicer Simó,bejaranorogelio@example.net,14.522752,-89.988392,2021-10-07T19:50:07.225662,37,masculino
Eusebio Rojas Lerma,mirtaberrocal@example.net,15.602099,-89.874067,2024-09-04T19:31:17.958745,49,masculino
José Ángel Pascual Aznar,pinolpio@example.com,16.7031,-90.059107,2023-04-16T02:20:34.833398,68,masculino
Flavia Díez Bautista,emilianonadal@example.org,14.317322,-88.47717,2022-11-12T20:54:21.790441,19,masculino
Paz Gallego Gomis,patricio48@example.net,15.920335,-89.692638,2022-03-31T11:13:52.980611,62,masculino
Amílcar Peralta Ojeda,gtorre@example.net,17.59906,-92.294006,2024-05-28T07:37:17.707351,60,femenino
Olimpia Manzano Sans,nereida13@example.com,17.180925,-89.318418,2020-06-18T09:01:24.333419,24,masculino
Viviana Escamilla Maldonado,canalesfidel@example.com,15.872239,-91.323513,2020-08-05T07:46:19.623880,49,masculino
Jose Ramón Contreras Fuente,marcossigfrido@example.net,17.687493,-91.716269,2022-11-16T08:45:54.952644,35,masculino
Jordi Oliver Rivera,salmazan@example.org,13.879991,-91.350962,2020-05-02T02:52:37.998142,51,femenino
Silvestre del Requena,gabriela57@example.net,16.573472,-90.772783,2023-07-15T17:40:33.391605,65,masculino
Soledad Salgado,kmateu@example.org,16.08116,-90.227746,2024-10-08T15:15:56.680865,58,femenino
Che Ruperto Juan González,speral@example.org,14.006805,-89.971935,2020-10-14T18:30:38.158765,45,masculino
Javier Celso Cuevas Machado,gabinocorral@example.org,14.670764,-91.229937,2021-04-06T12:40:32.747689,38,femenino
Federico Castañeda Saez,rafael23@example.net,16.572975,-89.285053,2023-10-03T19:35:37.663551,38,femenino
Fabiola Coloma Peralta,icamara@example.com,14.815019,-91.993782,2020-08-23T16:28:31.186093,30,masculino
Hermenegildo Valera Codina,jmontero@example.org,16.897742,-89.902697,2025-02-25T01:23:30.367931,27,masculino
Lilia del Marqués,wmanjon@example.net,14.373937,-90.389174,2023-07-17T17:44:34.672923,44,masculino
Pastora Salamanca-Nevado,tejerotrinidad@example.org,15.897291,-88.344998,2020-09-27T11:26:00.947669,31,femenino
Azahar del Amat,cgimenez@example.com,14.964062,-91.213467,2020-06-28T09:50:42.820496,25,masculino
Marco Ferrero Zurita,merchelobo@example.org,14.346223,-89.487175,2020-02-13T17:50:46.983489,70,masculino
Susana del Bonet,fferreras@example.com,14.581585,-88.78805,2023-03-16T03:11:06.722283,27,masculino
Amor Paniagua,tcoloma@example.com,16.615745,-88.32956,2021-12-18T01:39:59.505235,43,masculino
Adora Luís Ochoa,mario78@example.org,16.476452,-91.233316,2021-02-22T10:35:19.021093,29,masculino
Perla Ricart Salas,fernando66@example.org,17.603596,-88.796135,2024-06-08T20:43:41.204858,53,masculino
Antonia Bienvenida Galiano Mateos,vzapata@example.org,14.088374,-91.88218,2024-12-15T06:50:02.930218,68,masculino
Prudencia Peña-Borrego,reciofeliciana@example.com,14.197958,-92.047156,2022-03-15T03:25:50.682606,67,masculino
Joaquina de Flores,pepitapizarro@example.com,14.235932,-88.922939,2022-12-10T11:35:14.876950,41,masculino
Sergio Matas Mateu,osilva@example.org,16.087528,-91.238835,2024-03-14T22:31:47.318918,70,masculino
Eleuterio Marín Sureda,maestresilvestre@example.org,13.789381,-92.035665,2022-08-12T05:49:48.217994,59,femenino
Alberto de Lluch,mbatlle@example.net,17.018125,-91.922888,2021-12-02T19:13:28.408946,69,femenino
Marcia Rubio Jordá,xcarreras@example.net,14.202363,-88.436649,2023-11-22T21:53:10.444530,21,masculino
Telmo Jover Cánovas,collmiguel@example.com,17.48894,-90.524059,2024-08-30T21:43:39.746952,64,femenino
Gaspar Cárdenas Baena,poncio65@example.org,15.734118,-90.730809,2021-07-16T07:27:56.127565,45,masculino
Micaela Benítez,maria-doloresespanol@example.org,15.151167,-88.575953,2023-03-07T13:53:16.063593,35,femenino
Lalo Mora Molina,kike51@example.net,15.528647,-91.690611,2023-01-30T06:29:36.277574,57,masculino
Adolfo Cerro Villegas,ramon76@example.com,16.353841,-90.254544,2024-11-21T12:41:17.739313,53,femenino
Aurelio Gibert Cortes,pazfabra@example.net,13.950014,-91.152918,2023-04-05T00:43:07.234091,26,femenino
Soraya Carbonell,eserna@example.org,14.517777,-88.672925,2024-05-07T12:44:10.287609,51,masculino
Jose Olivé Mesa,emilio79@example.net,16.286093,-89.011111,2024-01-21T08:05:58.985385,68,masculino
Carmela Mayo Andrade,gironeduardo@example.net,17.756555,-89.094145,2020-10-03T04:08:00.003580,40,femenino
Fabio de Gallego,cayetanorodriguez@example.net,15.932523,-90.312814,2024-01-20T05:45:13.796648,54,femenino
Antonio Alfonso Tomé,marnau@example.org,15.292363,-91.562755,2020-03-04T14:48:06.502059,38,masculino
Martina Barranco,qcarrera@example.org,13.820144,-88.976174,2020-05-08T12:25:21.066970,35,masculino
René Bárcena Casals,dianafolch@example.org,17.015481,-90.366094,2023-07-24T22:36:47.849524,40,masculino
Artemio Coello Lobato,pastor28@example.net,17.693317,-91.889449,2023-04-04T02:44:45.521670,60,masculino
Mariana Bayo,alcalabenigna@example.org,14.792761,-88.953231,2023-10-20T15:35:58.315739,65,masculino
Che Virgilio Acosta Cabeza,zoraidavarela@example.net,16.832604,-88.41401,2022-07-09T22:21:44.929390,54,femenino
Catalina Sabater-Campo,perlitapacheco@example.com,15.154699,-88.859189,2022-04-02T17:22:00.380358,29,masculino
Corona Ramón,mirallesduilio@example.com,14.66986,-90.996182,2020-08-02T00:13:46.259558,65,femenino
Jose Miguel Paniagua Maldonado,blancanacio@example.com,17.447318,-92.184353,2020-08-12T11:56:57.023976,62,femenino
Javier Marcelo Mesa Saldaña,casandraramon@example.com,17.584991,-89.989213,2025-03-25T19:02:02.233847,54,masculino
Cecilia Baños Tamarit,gaston07@example.net,17.130457,-88.977355,2020-07-23T00:42:58.453815,49,femenino
Lourdes Blázquez Carreras,rupertoperez@example.net,14.419783,-92.144349,2023-02-19T15:51:28.280697,21,masculino
Raimundo Domingo Barón,heliodoro53@example.net,16.166817,-92.218295,2024-06-25T09:19:03.761890,48,masculino
Azucena Guerrero Rodriguez,wlopez@example.net,15.060109,-89.782047,2024-01-25T23:01:56.858863,69,masculino
Elena Páez-Palacio,fquiroga@example.net,15.097112,-91.572415,2021-06-25T00:55:04.625539,69,femenino
Asunción Carvajal Iglesia,ovalencia@example.net,13.944179,-91.694381,2025-01-02T05:30:24.962948,63,masculino
Augusto Baena Bayo,lamor@example.com,16.874903,-88.829428,2023-03-18T20:55:44.618330,41,masculino
Calista Mateo Bárcena,vizcainomaria-fernanda@example.com,15.231722,-88.438115,2024-03-17T20:55:16.067885,43,masculino
Eugenio Valenciano,qvargas@example.net,15.0799,-90.977327,2021-10-28T14:27:40.890745,28,femenino
Magdalena de Angulo,ycarrera@example.com,16.946554,-88.361285,2021-09-02T05:37:00.890062,59,femenino
Isaura Segura Araujo,elorzacecilia@example.net,14.414231,-88.328154,2024-07-27T01:41:05.996326,62,femenino
Vasco Patricio Córdoba Tur,tcanizares@example.net,14.615273,-89.885304,2022-01-24T19:16:00.758975,29,femenino
Lucas Trujillo Soriano,gcrespi@example.org,14.957975,-89.477156,2022-01-29T06:33:16.295662,26,masculino
Marta Pina Osorio,miguel-angel00@example.net,16.688207,-88.409969,2020-03-28T12:40:40.551206,54,femenino
Febe Amores Nogueira,bcabanillas@example.com,17.188104,-89.139595,2025-04-08T08:09:56.639570,54,masculino
Felicia Barbero Hidalgo,joelmiguel@example.net,14.446535,-90.995311,2020-06-13T18:49:02.029311,69,masculino
Toño Mayol Carbó,fortunato08@example.com,16.322552,-91.873148,2020-03-13T12:16:16.499953,49,masculino
Margarita Villa Robledo,alex79@example.org,15.057791,-91.980993,2025-03-27T08:23:43.867491,40,femenino
Marianela Portero Mora,torrescornelio@example.net,14.388338,-88.670187,2023-08-02T16:37:31.147183,23,femenino
Leonor Valverde Nicolás,encarnacionmari@example.com,15.531183,-91.212629,2025-02-23T15:45:24.945547,33,masculino
Jose Ramón Benet,luciolara@example.org,15.136973,-89.073218,2021-07-30T18:59:11.765516,64,masculino
Gracia Gonzalez-Briones,navarroleandro@example.org,13.897405,-90.503297,2023-01-03T20:26:03.899789,44,masculino
Juanita Roldán,ovidiobenitez@example.net,17.326663,-90.278364,2024-05-17T00:36:22.945711,42,femenino
Rosaura Marín,mmillan@example.com,15.938698,-91.884143,2022-02-19T10:48:02.967597,48,masculino
Lola Jenny Escribano Alfonso,coronavalera@example.org,14.366892,-91.997792,2023-07-05T22:35:33.431104,20,femenino
Edelmira Roura Barreda,panfilosevillano@example.org,13.78232,-91.229376,2021-04-11T07:36:46.212518,24,masculino
Telmo Isaac Reguera Montalbán,frutosraquel@example.com,15.101414,-88.659482,2021-06-01T20:15:44.235372,28,masculino
Mohamed Cecilio Jerez Guzman,hgomez@example.org,15.94289,-88.617691,2021-01-07T07:27:04.573555,23,femenino
Sabas del Simó,brubio@example.net,16.135525,-89.784057,2024-10-22T22:34:44.878316,48,masculino
Cebrián Llamas,ambrosiojordan@example.com,15.468426,-89.620096,2023-07-01T19:09:55.235222,56,femenino
Modesto Arnal Torre,baquerorosalina@example.org,14.344125,-91.884843,2021-08-31T23:08:50.963091,31,masculino
Toribio Amílcar Ramírez Parra,puenteprimitiva@example.net,15.378047,-90.028139,2024-06-22T21:45:27.511175,64,femenino
Basilio de Vélez,anabel13@example.net,16.408451,-91.080657,2020-08-25T05:06:30.798535,24,masculino
Eulalia Porta Guzman,jgibert@example.org,15.310899,-90.046383,2020-12-05T19:02:15.821277,49,masculino
Isidro Real-Izquierdo,trujillobibiana@example.com,13.92347,-92.284356,2023-09-19T05:37:28.666034,23,femenino
Federico Roda Taboada,leopoldococa@example.com,17.077979,-89.737127,2022-07-10T21:56:03.553053,48,masculino
Samanta Mendez Almazán,ballesterjessica@example.net,14.097646,-91.451493,2021-04-09T23:06:32.430878,58,femenino
Fátima del Parejo,guzmanrosa@example.com,17.705937,-90.35836,2022-01-23T14:53:24.644181,25,femenino
Ángeles Jaume Mascaró,gutierrezmanuel@example.org,16.917994,-90.369128,2024-07-25T05:44:05.096230,60,femenino
Zacarías Ródenas Molins,raragon@example.org,14.073661,-90.069083,2024-05-15T23:24:35.907922,29,femenino
Jovita Rey Méndez,kcabrera@example.net,17.33052,-90.785453,2021-05-21T06:33:05.486866,46,masculino
Gabriel Rivero Morillo,wamoros@example.org,14.779513,-90.393262,2023-05-29T05:47:19.181517,32,femenino
Maxi Salcedo Cerdán,perezheraclio@example.net,16.013411,-91.680364,2021-08-15T18:02:29.223564,62,masculino
Anna Cano-Cruz,ascensioncastillo@example.net,14.0514,-90.890455,2023-08-23T08:06:42.949305,52,femenino
Jennifer Tejera Cañellas,fulgencio95@example.com,17.679893,-89.882122,2021-01-20T09:37:08.395122,53,masculino
Flor Espada Pozuelo,bgomez@example.org,17.147268,-88.944539,2024-11-25T19:21:00.175832,44,femenino
Maura Crescencia Borrell Sevillano,juan-franciscodomingo@example.org,16.048129,-91.333868,2022-02-16T23:51:17.389170,37,masculino
María Carmen Juan Company,pedrofrancisco@example.net,15.318698,-88.798847,2020-08-15T15:44:36.264287,20,masculino
Irma Santiago,ocarrasco@example.net,14.193156,-89.195526,2021-01-29T02:16:50.372720,29,masculino
Ernesto Urrutia-Piña,tomasgabaldon@example.net,17.685876,-88.985311,2021-02-22T04:36:11.062428,26,masculino
Prudencio Nilo Fajardo Ripoll,sebastiancoello@example.org,15.435837,-88.248052,2021-07-16T23:08:42.144580,45,masculino
Desiderio Sanmartín-Hurtado,dafne71@example.org,17.788804,-89.728373,2022-06-28T14:44:27.973981,56,femenino
Nydia Puga Garay,vrocha@example.net,15.010973,-89.318878,2021-05-12T01:39:08.675008,69,masculino
León Barral Azorin,joel75@example.net,14.056813,-90.018907,2024-12-27T06:03:18.416793,53,femenino
Olimpia Pilar Arroyo Adadia,anna96@example.com,17.212159,-90.169278,2025-03-11T08:42:20.324396,18,femenino
Benigna Armengol Escobar,fortunato87@example.com,14.161327,-91.686466,2024-08-30T02:08:56.380759,54,masculino
Arsenio Molins Roselló,juan-bautistacaro@example.com,17.492205,-89.992997,2020-03-26T16:09:13.786712,24,femenino
Josep Lucas Palomo,qluna@example.net,17.256649,-88.691443,2024-05-28T08:59:17.585099,44,femenino
Juan Millán-Ruano,maximianotur@example.org,15.270478,-90.309102,2022-12-13T23:45:22.661312,56,femenino
Amelia Fabregat Comas,grasgervasio@example.org,13.853609,-91.170802,2022-07-01T06:20:14.526106,27,femenino
Patricio Solera Rubio,uriaapolinar@example.com,13.859008,-88.652746,2021-11-22T15:16:57.652965,39,masculino
Julieta del Ureña,colomerduilio@example.com,13.902093,-90.351605,2020-06-30T12:54:31.894064,35,femenino
Cipriano Silvestre Diéguez Verdugo,chus93@example.net,13.782955,-88.948718,2025-04-20T02:16:09.495628,37,femenino
Juan José Escribano Rico,hozmaria-jesus@example.com,14.849421,-90.284361,2023-08-06T04:18:08.769532,62,masculino
Alba Luís Carro,lpereira@example.org,17.687236,-91.365375,2024-06-11T16:58:07.645176,37,femenino
Alberto Bertrán Seguí,osantiago@example.com,16.873527,-90.98444,2023-02-26T17:39:37.537126,64,femenino
Fidel Arranz Santamaría,lupita92@example.org,16.180414,-91.933924,2024-08-01T17:33:04.474993,46,masculino
Felix Sabas Baquero Bejarano,zbru@example.com,17.445075,-90.630602,2020-12-11T08:02:10.047394,49,femenino
Anunciación Almansa Galindo,romanquevedo@example.com,17.066171,-90.187394,2023-06-09T11:36:30.891006,28,masculino
Benito Martín Tudela,rmenendez@example.net,14.975605,-90.222139,2020-09-11T16:35:56.563825,26,masculino
Sigfrido Pedrero Vila,ameliasalinas@example.com,14.412323,-88.71176,2022-07-13T06:38:20.441145,30,masculino
María Carmen Rocha-Bosch,npedrosa@example.org,14.72291,-90.42856,2022-04-22T03:36:49.881121,41,masculino
Araceli Arjona Vilanova,abigail32@example.com,14.823308,-88.923624,2022-10-19T21:39:43.480206,50,femenino
Anna Manso,fruiz@example.com,16.30518,-91.792121,2021-08-05T18:03:44.207929,19,masculino
Octavio Mas Ibarra,kmarques@example.org,15.227114,-89.864421,2022-12-04T21:50:30.219965,29,femenino
José María Campos Vicens,grey@example.com,16.106209,-90.865984,2023-07-06T00:52:32.825539,28,femenino
Ruth Isern-Padilla,delfina18@example.org,16.770741,-89.475713,2020-08-09T00:44:33.098833,36,masculino
Carmina Esparza Pozo,blancosigfrido@example.net,15.284919,-91.63208,2021-07-31T10:13:22.588541,54,masculino
Paloma Sanz-Sandoval,nestor23@example.org,17.214156,-89.645742,2020-05-31T17:53:00.107375,61,masculino
Dora Trini Camino Roura,adanruperto@example.org,14.803243,-90.62102,2020-01-26T19:27:04.330295,19,masculino
Jimena Quirós Torrecilla,esperanza95@example.net,15.643799,-91.757512,2023-07-31T03:43:07.757399,29,masculino
Rosaura Mate Bonilla,elpidioalcala@example.org,14.617457,-89.80579,2020-08-05T02:33:13.857268,37,femenino
Pablo Fabra Amor,aliciacodina@example.net,15.437608,-90.756451,2021-04-14T01:05:15.292324,40,femenino
Celestina de Mascaró,ecolomer@example.com,14.733195,-90.386538,2020-02-12T07:46:24.727332,61,femenino
Vito Corominas Salgado,bsoto@example.com,16.096397,-92.269875,2023-02-09T07:39:09.417493,60,femenino
Eugenio Pou,mugicaadan@example.org,16.001974,-89.865533,2023-05-07T23:21:51.446099,36,femenino
Herminia Valcárcel Manso,torrentsalomon@example.com,16.506094,-90.324872,2022-09-22T21:25:08.969553,39,femenino
Nidia Yolanda Torrents Guardiola,alvarezalejo@example.com,16.326438,-88.767884,2023-01-23T04:51:53.482217,34,femenino
Ana Belén del Rincón,fcaro@example.net,14.472276,-90.179096,2024-12-26T13:24:42.768582,33,masculino
Jacinta Rubio Almansa,luciofernandez@example.com,17.002262,-89.010309,2021-10-29T01:15:03.550194,56,femenino
José Luis de Nicolau,scastro@example.net,16.408174,-89.508901,2023-10-12T01:30:27.936095,64,masculino
Serafina Palomino Sureda,estergalan@example.com,16.387142,-88.210377,2023-09-01T22:18:30.367006,34,femenino
Nazario Tolosa Castelló,heracliocrespi@example.net,15.358855,-89.279398,2022-08-12T19:45:43.344496,55,masculino
Leire Mateos Guitart,ceciliaarevalo@example.org,15.106985,-89.375186,2021-11-27T00:48:55.582634,61,femenino
Gaspar Cuadrado-Díaz,bartolomenicolas@example.com,17.416759,-89.545339,2020-08-09T02:18:58.816239,50,femenino
Benito de Torrecilla,noe50@example.net,17.166219,-88.853381,2021-06-02T22:10:17.025065,53,masculino
Teodosio Villalba Calvet,rionerea@example.com,14.904515,-90.369798,2025-02-10T12:03:20.692828,65,femenino
Balduino Cal Arnaiz,diegoeva-maria@example.org,16.673265,-90.00797,2024-08-16T10:57:53.039050,29,femenino
Camila Manzano Sala,jcabezas@example.net,16.383182,-91.388761,2021-12-06T15:17:25.941619,32,femenino
Benjamín Franch Saavedra,pagudo@example.com,15.423938,-88.663941,2021-10-24T03:34:51.778384,41,femenino
Carlota Blázquez,ramon65@example.net,16.10084,-90.398581,2023-07-14T01:37:50.941890,25,femenino
Renato Ávila Robles,emilianoromeu@example.com,13.920076,-89.698973,2024-11-15T22:15:25.315887,55,masculino
Tamara Villalonga Pardo,salasesteban@example.org,15.636101,-91.50237,2023-10-24T04:03:45.409731,25,femenino
Anastasia Blazquez,maxi62@example.com,15.872338,-90.60626,2020-04-29T05:54:52.909408,27,masculino
Natalio Corbacho Barco,simon68@example.com,17.768626,-90.895053,2023-10-31T18:49:18.203865,54,femenino
Yéssica Núñez Aguiló,trinidad89@example.org,14.287219,-88.764185,2023-09-20T13:09:38.951997,29,masculino
Milagros Fuertes Salamanca,susana63@example.com,15.699081,-89.712766,2020-06-12T12:03:01.091452,29,femenino
Eva María del Cases,ignacio18@example.net,16.301446,-92.280675,2021-08-28T18:12:53.799592,35,masculino
Prudencia Cuesta Alvarado,jordanjose-antonio@example.com,16.820892,-91.608716,2023-11-10T09:40:17.565071,66,masculino
Aura Barreda,juan-antonio85@example.org,15.707266,-89.169366,2020-04-02T14:24:11.559095,23,masculino
Jacobo Martí Adadia,pnicolau@example.net,16.219367,-89.702701,2025-04-02T15:01:41.872437,43,femenino
Oriana Guillen-Ordóñez,lucas92@example.net,17.657844,-90.728403,2022-01-02T15:48:17.208135,20,masculino
Baldomero del Villalonga,pacificapaniagua@example.com,16.695702,-88.404719,2020-07-09T02:13:57.575504,38,masculino
Saturnina Requena Bilbao,barriosteodoro@example.org,13.773456,-92.283092,2022-07-12T21:57:01.319713,64,masculino
Angélica Peiró Zorrilla,xvillena@example.com,14.627689,-88.704361,2024-08-18T16:17:23.359678,37,masculino
Leticia Roda-Sacristán,kriera@example.org,14.121104,-90.23632,2022-09-08T04:58:26.711663,37,masculino
Olivia Seco Castelló,garciaxavier@example.com,13.967677,-92.112555,2020-03-04T06:10:23.434430,36,femenino
Lino Peiró Carrera,hcanet@example.com,16.684111,-89.854883,2023-01-14T04:53:44.080146,39,femenino
Juan Carlos Coronado Carranza,marcos54@example.com,17.340694,-88.218563,2022-07-31T16:17:33.175558,39,femenino
Calisto Robles Atienza,tamara43@example.org,15.172929,-91.527453,2024-05-08T01:47:16.440559,69,femenino
Abril Carvajal Oller,arribassilvestre@example.com,13.778411,-91.380282,2023-01-16T17:09:31.889969,26,masculino
Jennifer Nebot-Pi,wcazorla@example.org,16.709714,-89.882259,2022-09-06T05:23:21.231859,28,masculino
Pía Sandoval Sanchez,roxanamorell@example.org,15.203025,-89.632784,2024-03-31T14:34:10.857306,20,femenino
Guadalupe Gala Guerrero Prats,calixta07@example.net,17.293831,-91.251264,2021-06-22T02:21:21.412578,52,masculino
Toribio Daza Amat,chelo18@example.org,16.135089,-92.103362,2021-01-08T07:13:48.212738,24,masculino
Macarena Maricruz Baena Vélez,maricelatamarit@example.net,13.897764,-91.825262,2024-10-05T21:15:41.304143,46,femenino
Narciso Escolano Alfonso,miriam33@example.net,14.20674,-91.263773,2024-06-15T11:18:15.855046,62,masculino
Isidora Blazquez-Montes,farrieta@example.org,14.542529,-89.488466,2021-10-21T12:05:48.939580,18,femenino
Hipólito Amador Álvarez,roberto41@example.org,15.425573,-91.885983,2025-03-15T18:02:01.219475,51,femenino
Carla del Cobo,jose-mariborras@example.org,16.253471,-89.427022,2021-08-18T04:05:09.139826,44,masculino
Nidia Dominguez Barral,gerardo00@example.com,15.797498,-89.767438,2022-01-26T11:16:17.297061,36,masculino
Bibiana Rey Morante,remigio10@example.org,16.917516,-90.25927,2021-04-09T20:38:51.467214,56,masculino
Maristela Cándida Ureña Verdugo,rcardona@example.org,16.889632,-88.890855,2021-09-09T13:28:56.839118,30,femenino
Griselda de Tomé,ramonevita@example.org,16.584091,-91.08906,2024-11-07T14:45:10.268974,20,femenino
Eloy Cadenas Hoz,marcoramirez@example.com,17.432462,-89.478364,2020-06-11T18:42:13.889040,48,femenino
